[
  {
    "name": "Lilla Varholmen",
    "id": "9022014004420030",
    "lat": "57.708545",
    "lon": "11.701492"
  },
  {
    "name": "Hjuvik",
    "id": "9021014003190000",
    "lat": "57.704841",
    "lon": "11.711272"
  },
  {
    "name": "Fyrskeppsvägen",
    "id": "9022014002590002",
    "lat": "57.706585",
    "lon": "11.712944"
  },
  {
    "name": "Majvik",
    "id": "9022014004710001",
    "lat": "57.710693",
    "lon": "11.714769"
  },
  {
    "name": "Batterivägen",
    "id": "9022014001300002",
    "lat": "57.711853",
    "lon": "11.723381"
  },
  {
    "name": "Sillvik",
    "id": "9021014005770000",
    "lat": "57.741967",
    "lon": "11.735615"
  },
  {
    "name": "Långrevsvägen",
    "id": "9022014004595002",
    "lat": "57.710136",
    "lon": "11.735732"
  },
  {
    "name": "Lilleby Båthamn",
    "id": "9022014004445002",
    "lat": "57.743162",
    "lon": "11.742294"
  },
  {
    "name": "Övre Hällsvik",
    "id": "9022014007910002",
    "lat": "57.708904",
    "lon": "11.744083"
  },
  {
    "name": "Norskog",
    "id": "9022014005050001",
    "lat": "57.743405",
    "lon": "11.749054"
  },
  {
    "name": "Hornkamsgatan",
    "id": "9021014003215000",
    "lat": "57.728609",
    "lon": "11.751859"
  },
  {
    "name": "Hällsviksvägen",
    "id": "9022014003265002",
    "lat": "57.707844",
    "lon": "11.753468"
  },
  {
    "name": "Lillebybadet",
    "id": "9022014004440002",
    "lat": "57.743953",
    "lon": "11.755994"
  },
  {
    "name": "Vargö",
    "id": "9021014001064000",
    "lat": "57.623381",
    "lon": "11.757207"
  },
  {
    "name": "Lönnrunan",
    "id": "9022014004655002",
    "lat": "57.729750",
    "lon": "11.760228"
  },
  {
    "name": "Runslingan",
    "id": "9022014005506001",
    "lat": "57.730928",
    "lon": "11.762691"
  },
  {
    "name": "Gossbydalsvägen",
    "id": "9022014002740001",
    "lat": "57.708895",
    "lon": "11.763850"
  },
  {
    "name": "Brännö Husvik",
    "id": "9021014001066000",
    "lat": "57.635355",
    "lon": "11.766754"
  },
  {
    "name": "Torslanda Torg",
    "id": "9022014004970003",
    "lat": "57.722757",
    "lon": "11.767230"
  },
  {
    "name": "Gröna Viken",
    "id": "9022014002830002",
    "lat": "57.743297",
    "lon": "11.767419"
  },
  {
    "name": "Sjumansholmen",
    "id": "9021014001033000",
    "lat": "57.593968",
    "lon": "11.769019"
  },
  {
    "name": "Lyse",
    "id": "9022014004570002",
    "lat": "57.706693",
    "lon": "11.769235"
  },
  {
    "name": "Styrsö Tången",
    "id": "9021014001062000",
    "lat": "57.621502",
    "lon": "11.769774"
  },
  {
    "name": "Andalen",
    "id": "9022014001091002",
    "lat": "57.703385",
    "lon": "11.770017"
  },
  {
    "name": "Sandvik",
    "id": "9022014005680002",
    "lat": "57.701272",
    "lon": "11.770125"
  },
  {
    "name": "Runskriftsgatan",
    "id": "9022014005503002",
    "lat": "57.731809",
    "lon": "11.771015"
  },
  {
    "name": "Nordhagsvägen",
    "id": "9022014005010002",
    "lat": "57.719260",
    "lon": "11.772885"
  },
  {
    "name": "Hembygdsgatan",
    "id": "9022014003130001",
    "lat": "57.726973",
    "lon": "11.773406"
  },
  {
    "name": "Amhult Torg",
    "id": "9022014001070002",
    "lat": "57.710055",
    "lon": "11.774125"
  },
  {
    "name": "Skeppstad",
    "id": "9022014005860001",
    "lat": "57.700823",
    "lon": "11.776094"
  },
  {
    "name": "Gamla Hangaren",
    "id": "9021014002640000",
    "lat": "57.702297",
    "lon": "11.777451"
  },
  {
    "name": "Sävviken",
    "id": "9022014006620002",
    "lat": "57.744151",
    "lon": "11.777631"
  },
  {
    "name": "Vårbäcksvägen",
    "id": "9022014007530001",
    "lat": "57.728366",
    "lon": "11.777972"
  },
  {
    "name": "Amhult Resecentrum",
    "id": "9022014001004005",
    "lat": "57.709839",
    "lon": "11.779132"
  },
  {
    "name": "Högstensgatan",
    "id": "9022014003383002",
    "lat": "57.731126",
    "lon": "11.779294"
  },
  {
    "name": "Källö",
    "id": "9021014001061000",
    "lat": "57.623129",
    "lon": "11.780786"
  },
  {
    "name": "Kårholmen",
    "id": "9021014001034000",
    "lat": "57.591262",
    "lon": "11.781982"
  },
  {
    "name": "Torslandakrysset",
    "id": "9022014003960005",
    "lat": "57.714846",
    "lon": "11.782404"
  },
  {
    "name": "Änghagen",
    "id": "9022014007720001",
    "lat": "57.731207",
    "lon": "11.785317"
  },
  {
    "name": "Brännö Rödsten",
    "id": "9021014001049000",
    "lat": "57.648524",
    "lon": "11.785532"
  },
  {
    "name": "Bergegården",
    "id": "9022014001350002",
    "lat": "57.743108",
    "lon": "11.785586"
  },
  {
    "name": "Torslanda Mellangård",
    "id": "9022014006880001",
    "lat": "57.733319",
    "lon": "11.789937"
  },
  {
    "name": "Thorskog",
    "id": "9022014006720001",
    "lat": "57.740169",
    "lon": "11.790171"
  },
  {
    "name": "Styrsö Skäret",
    "id": "9021014001036000",
    "lat": "57.603883",
    "lon": "11.790917"
  },
  {
    "name": "Bur",
    "id": "9022014001780002",
    "lat": "57.716347",
    "lon": "11.791321"
  },
  {
    "name": "Vrångö",
    "id": "9021014001031000",
    "lat": "57.570318",
    "lon": "11.792014"
  },
  {
    "name": "Asperö Norra",
    "id": "9021014001048000",
    "lat": "57.650672",
    "lon": "11.792499"
  },
  {
    "name": "Häggvägen",
    "id": "9022014003260002",
    "lat": "57.738982",
    "lon": "11.793182"
  },
  {
    "name": "Donsö",
    "id": "9021014001035000",
    "lat": "57.599766",
    "lon": "11.793991"
  },
  {
    "name": "Lilleby Skolväg",
    "id": "9022014004435001",
    "lat": "57.735288",
    "lon": "11.794099"
  },
  {
    "name": "Styrsö Bratten",
    "id": "9021014001038000",
    "lat": "57.616118",
    "lon": "11.794252"
  },
  {
    "name": "Gamla Torslandavägen",
    "id": "9022014002665001",
    "lat": "57.738731",
    "lon": "11.796364"
  },
  {
    "name": "Lillebyvägen",
    "id": "9022014004430001",
    "lat": "57.737139",
    "lon": "11.799295"
  },
  {
    "name": "Lilleby Kronogård",
    "id": "9022014004450001",
    "lat": "57.739081",
    "lon": "11.806297"
  },
  {
    "name": "Asperö Östra",
    "id": "9021014001045000",
    "lat": "57.649261",
    "lon": "11.807277"
  },
  {
    "name": "Björlanda Kile",
    "id": "9021014001510000",
    "lat": "57.761815",
    "lon": "11.808832"
  },
  {
    "name": "Köpstadsö",
    "id": "9021014001039000",
    "lat": "57.625188",
    "lon": "11.809561"
  },
  {
    "name": "Terminalvägen",
    "id": "9022014006705001",
    "lat": "57.702441",
    "lon": "11.809561"
  },
  {
    "name": "Arendal Terminal",
    "id": "9022014001142001",
    "lat": "57.699807",
    "lon": "11.809722"
  },
  {
    "name": "Hovdalen",
    "id": "9022014003230002",
    "lat": "57.763208",
    "lon": "11.812356"
  },
  {
    "name": "Arendals Allé",
    "id": "9022014001133002",
    "lat": "57.697776",
    "lon": "11.814568"
  },
  {
    "name": "Arendal Norra",
    "id": "9022014001137001",
    "lat": "57.706055",
    "lon": "11.815341"
  },
  {
    "name": "Hamneviksvägen",
    "id": "9021014003092000",
    "lat": "57.703969",
    "lon": "11.817669"
  },
  {
    "name": "Innegården",
    "id": "9022014003580001",
    "lat": "57.742542",
    "lon": "11.818397"
  },
  {
    "name": "Arendal Skans",
    "id": "9022014001136002",
    "lat": "57.696553",
    "lon": "11.818487"
  },
  {
    "name": "Syrhåla",
    "id": "9022014006520001",
    "lat": "57.717651",
    "lon": "11.819206"
  },
  {
    "name": "Godsgatan",
    "id": "9022014002737002",
    "lat": "57.699241",
    "lon": "11.821004"
  },
  {
    "name": "Sjömarksstigen",
    "id": "9022014005800002",
    "lat": "57.763514",
    "lon": "11.821309"
  },
  {
    "name": "Låssbyvägen",
    "id": "9022014004610001",
    "lat": "57.743252",
    "lon": "11.823089"
  },
  {
    "name": "Lunnagården",
    "id": "9022014004560001",
    "lat": "57.770004",
    "lon": "11.824024"
  },
  {
    "name": "Arendal Portal",
    "id": "9022014001130002",
    "lat": "57.698036",
    "lon": "11.825813"
  },
  {
    "name": "Storegården",
    "id": "9022014006330002",
    "lat": "57.764305",
    "lon": "11.826325"
  },
  {
    "name": "Östergården",
    "id": "9022014007850002",
    "lat": "57.777204",
    "lon": "11.828087"
  },
  {
    "name": "Skräddaregården",
    "id": "9022014005930001",
    "lat": "57.745742",
    "lon": "11.828339"
  },
  {
    "name": "Nolvik",
    "id": "9022014004990001",
    "lat": "57.779020",
    "lon": "11.828447"
  },
  {
    "name": "Gamla Lillebyvägen",
    "id": "9022014002660001",
    "lat": "57.750219",
    "lon": "11.828483"
  },
  {
    "name": "Knarrholmen",
    "id": "9021014001044000",
    "lat": "57.625997",
    "lon": "11.828690"
  },
  {
    "name": "Synneröd",
    "id": "9022014006510001",
    "lat": "57.701533",
    "lon": "11.829553"
  },
  {
    "name": "Kvisljungeby",
    "id": "9022014004170001",
    "lat": "57.754345",
    "lon": "11.830227"
  },
  {
    "name": "Skra Bro",
    "id": "9022014005910004",
    "lat": "57.757797",
    "lon": "11.830865"
  },
  {
    "name": "Vikhall",
    "id": "9022014007450001",
    "lat": "57.784486",
    "lon": "11.831665"
  },
  {
    "name": "Björlanda Kyrka",
    "id": "9022014001520002",
    "lat": "57.762929",
    "lon": "11.831710"
  },
  {
    "name": "Kallhed",
    "id": "9022014003710001",
    "lat": "57.781402",
    "lon": "11.832276"
  },
  {
    "name": "Bli",
    "id": "9022014001570001",
    "lat": "57.787254",
    "lon": "11.833328"
  },
  {
    "name": "Kippholmen",
    "id": "9021014003830000",
    "lat": "57.788594",
    "lon": "11.833391"
  },
  {
    "name": "Lexbyvägen",
    "id": "9022014001030003",
    "lat": "57.762849",
    "lon": "11.834640"
  },
  {
    "name": "Kärrlyckegatan",
    "id": "9022014004285001",
    "lat": "57.706729",
    "lon": "11.838002"
  },
  {
    "name": "Kärrlyckan",
    "id": "9022014004280002",
    "lat": "57.703987",
    "lon": "11.838659"
  },
  {
    "name": "Sörredsmotet",
    "id": "9022014006650005",
    "lat": "57.711664",
    "lon": "11.840106"
  },
  {
    "name": "Spänstvägen",
    "id": "9022014006170002",
    "lat": "57.765716",
    "lon": "11.840627"
  },
  {
    "name": "Trulsegården",
    "id": "9022014007020002",
    "lat": "57.756511",
    "lon": "11.840843"
  },
  {
    "name": "Volvo Torslanda TK",
    "id": "9022014007492001",
    "lat": "57.717831",
    "lon": "11.840843"
  },
  {
    "name": "Volvo Torslanda TA",
    "id": "9022014007485002",
    "lat": "57.721822",
    "lon": "11.841265"
  },
  {
    "name": "Saltholmens Brygga",
    "id": "9022014009620017",
    "lat": "57.661396",
    "lon": "11.841877"
  },
  {
    "name": "Saltholmen",
    "id": "9021014005630000",
    "lat": "57.660785",
    "lon": "11.844466"
  },
  {
    "name": "IAC Group",
    "id": "9022014003510001",
    "lat": "57.731737",
    "lon": "11.844960"
  },
  {
    "name": "Volvo City",
    "id": "9022014007482001",
    "lat": "57.719539",
    "lon": "11.846201"
  },
  {
    "name": "Volvo Torslanda TLA",
    "id": "9022014007494001",
    "lat": "57.725292",
    "lon": "11.846488"
  },
  {
    "name": "Arendalsvägen",
    "id": "9021014001140000",
    "lat": "57.706037",
    "lon": "11.849778"
  },
  {
    "name": "Volvohallen",
    "id": "9022014007486002",
    "lat": "57.723368",
    "lon": "11.849850"
  },
  {
    "name": "Högåsa",
    "id": "9022014003390002",
    "lat": "57.769339",
    "lon": "11.849967"
  },
  {
    "name": "Roddföreningen",
    "id": "9022014005480002",
    "lat": "57.663922",
    "lon": "11.851540"
  },
  {
    "name": "Fiskebäcks Småbåtshamn",
    "id": "9021014002350000",
    "lat": "57.648784",
    "lon": "11.853239"
  },
  {
    "name": "Långedrag",
    "id": "9022014004590004",
    "lat": "57.667302",
    "lon": "11.853446"
  },
  {
    "name": "Stora Förö",
    "id": "9021014001043000",
    "lat": "57.629835",
    "lon": "11.854057"
  },
  {
    "name": "Garaget Högstena",
    "id": "9022014002680002",
    "lat": "57.772773",
    "lon": "11.854650"
  },
  {
    "name": "Volvo Torslanda TS",
    "id": "9022014007500002",
    "lat": "57.723934",
    "lon": "11.855819"
  },
  {
    "name": "Sydatlanten",
    "id": "9021014006495000",
    "lat": "57.694620",
    "lon": "11.856493"
  },
  {
    "name": "Volvo IT",
    "id": "9022014007487001",
    "lat": "57.725633",
    "lon": "11.856898"
  },
  {
    "name": "Högstena",
    "id": "9022014003380002",
    "lat": "57.775982",
    "lon": "11.857967"
  },
  {
    "name": "Ytterhamnsmotet",
    "id": "9022014007595002",
    "lat": "57.702477",
    "lon": "11.859693"
  },
  {
    "name": "Åseby",
    "id": "9022014007646002",
    "lat": "57.779811",
    "lon": "11.859756"
  },
  {
    "name": "Volvo Torslanda PV",
    "id": "9022014007483002",
    "lat": "57.728177",
    "lon": "11.860404"
  },
  {
    "name": "John Bunyans Väg",
    "id": "9021014003626000",
    "lat": "57.737607",
    "lon": "11.860448"
  },
  {
    "name": "Hinsholmen",
    "id": "9022014003170002",
    "lat": "57.667878",
    "lon": "11.860754"
  },
  {
    "name": "Fiskebäcks Hamn",
    "id": "9022014002340002",
    "lat": "57.645854",
    "lon": "11.861033"
  },
  {
    "name": "Säve Flygplatsväg",
    "id": "9022014004152002",
    "lat": "57.782157",
    "lon": "11.861959"
  },
  {
    "name": "Volvo Torslanda RA",
    "id": "9022014007498003",
    "lat": "57.721687",
    "lon": "11.863873"
  },
  {
    "name": "Kålsered",
    "id": "9021014004190000",
    "lat": "57.741778",
    "lon": "11.864098"
  },
  {
    "name": "Nordatlanten",
    "id": "9022014003520001",
    "lat": "57.698738",
    "lon": "11.864116"
  },
  {
    "name": "Säve Flygplats",
    "id": "9021014004150000",
    "lat": "57.777681",
    "lon": "11.864413"
  },
  {
    "name": "Allebyvägen",
    "id": "9022014004360002",
    "lat": "57.751513",
    "lon": "11.865572"
  },
  {
    "name": "Volvo Torslanda PVH",
    "id": "9022014007488001",
    "lat": "57.728069",
    "lon": "11.866022"
  },
  {
    "name": "Sikgatan",
    "id": "9022014005767001",
    "lat": "57.648443",
    "lon": "11.867622"
  },
  {
    "name": "Fiskebäcksskolan",
    "id": "9022014002345001",
    "lat": "57.652021",
    "lon": "11.868395"
  },
  {
    "name": "Hisingen Logistikpark",
    "id": "9022014003175002",
    "lat": "57.735701",
    "lon": "11.869060"
  },
  {
    "name": "Käringberget",
    "id": "9022014004230005",
    "lat": "57.669037",
    "lon": "11.870516"
  },
  {
    "name": "Björnåsgatan",
    "id": "9022014001535004",
    "lat": "57.654978",
    "lon": "11.870948"
  },
  {
    "name": "Sjögången",
    "id": "9022014005795002",
    "lat": "57.677658",
    "lon": "11.870984"
  },
  {
    "name": "Aprikosgatan",
    "id": "9022014001119001",
    "lat": "57.647823",
    "lon": "11.871424"
  },
  {
    "name": "Skärvallsgatan",
    "id": "9022014006000002",
    "lat": "57.659266",
    "lon": "11.871901"
  },
  {
    "name": "Önnereds Brygga",
    "id": "9022014007810002",
    "lat": "57.637818",
    "lon": "11.873096"
  },
  {
    "name": "Östergärde",
    "id": "9022014007860003",
    "lat": "57.750704",
    "lon": "11.873231"
  },
  {
    "name": "Påvelunds Centrum",
    "id": "9022014005370001",
    "lat": "57.664327",
    "lon": "11.874112"
  },
  {
    "name": "Tångudden",
    "id": "9022014007145002",
    "lat": "57.679716",
    "lon": "11.874130"
  },
  {
    "name": "Vädermotet",
    "id": "9022014003970001",
    "lat": "57.704598",
    "lon": "11.875128"
  },
  {
    "name": "Melongatan",
    "id": "9022014004807002",
    "lat": "57.647868",
    "lon": "11.877052"
  },
  {
    "name": "Västes Gata",
    "id": "9022014007585001",
    "lat": "57.655490",
    "lon": "11.877105"
  },
  {
    "name": "Stenebyvägen",
    "id": "9022014006230001",
    "lat": "57.755855",
    "lon": "11.877168"
  },
  {
    "name": "Skogsrydsgatan",
    "id": "9022014005885001",
    "lat": "57.676345",
    "lon": "11.877240"
  },
  {
    "name": "Askesby",
    "id": "9022014001170002",
    "lat": "57.785915",
    "lon": "11.878481"
  },
  {
    "name": "Halleskärsgatan",
    "id": "9022014003070003",
    "lat": "57.636271",
    "lon": "11.878957"
  },
  {
    "name": "Tranered",
    "id": "9022014001340001",
    "lat": "57.672408",
    "lon": "11.879461"
  },
  {
    "name": "Toredamm",
    "id": "9022014006830002",
    "lat": "57.680346",
    "lon": "11.879694"
  },
  {
    "name": "Helgereds Gårdar",
    "id": "9022014007855002",
    "lat": "57.748250",
    "lon": "11.879829"
  },
  {
    "name": "Kornhalls Färja",
    "id": "9022014003975002",
    "lat": "57.817827",
    "lon": "11.880414"
  },
  {
    "name": "Ruskvädersgatan",
    "id": "9022014005520001",
    "lat": "57.706792",
    "lon": "11.880539"
  },
  {
    "name": "Klåveskärsgatan",
    "id": "9022014003900002",
    "lat": "57.642061",
    "lon": "11.880638"
  },
  {
    "name": "Krokebacksgatan",
    "id": "9022014004025001",
    "lat": "57.674709",
    "lon": "11.880818"
  },
  {
    "name": "Pingstvägen",
    "id": "9022014005290002",
    "lat": "57.662133",
    "lon": "11.880908"
  },
  {
    "name": "Juteskärsgatan",
    "id": "9022014003635002",
    "lat": "57.639148",
    "lon": "11.881124"
  },
  {
    "name": "Stenskärsgatan",
    "id": "9022014006245001",
    "lat": "57.644811",
    "lon": "11.881357"
  },
  {
    "name": "Rya Skog",
    "id": "9022014001330002",
    "lat": "57.698782",
    "lon": "11.881555"
  },
  {
    "name": "Östes Gata",
    "id": "9022014007875002",
    "lat": "57.657288",
    "lon": "11.881933"
  },
  {
    "name": "Fågelvägen",
    "id": "9021014002520000",
    "lat": "57.673882",
    "lon": "11.882580"
  },
  {
    "name": "Hagen",
    "id": "9022014003060001",
    "lat": "57.674754",
    "lon": "11.883919"
  },
  {
    "name": "Volvo Tuve L A",
    "id": "9021014007506000",
    "lat": "57.756394",
    "lon": "11.884099"
  },
  {
    "name": "Brunstorpsnäs",
    "id": "9022014001765001",
    "lat": "57.818078",
    "lon": "11.885043"
  },
  {
    "name": "Åkerberget",
    "id": "9022014007620002",
    "lat": "57.646465",
    "lon": "11.885627"
  },
  {
    "name": "Hagelvädersgatan",
    "id": "9022014003050002",
    "lat": "57.709587",
    "lon": "11.886283"
  },
  {
    "name": "Trädet",
    "id": "9022014007040002",
    "lat": "57.790571",
    "lon": "11.886454"
  },
  {
    "name": "Svarte Mosse",
    "id": "9022014006462030",
    "lat": "57.733094",
    "lon": "11.886508"
  },
  {
    "name": "Beryllgatan",
    "id": "9022014001410002",
    "lat": "57.658942",
    "lon": "11.887021"
  },
  {
    "name": "Madbäcksvägen",
    "id": "9022014004670001",
    "lat": "57.660911",
    "lon": "11.887407"
  },
  {
    "name": "Brungatan",
    "id": "9022014001720001",
    "lat": "57.634213",
    "lon": "11.888486"
  },
  {
    "name": "Rengatan",
    "id": "9022014005470002",
    "lat": "57.679294",
    "lon": "11.889313"
  },
  {
    "name": "Örlogsvägen",
    "id": "9022014007845001",
    "lat": "57.683519",
    "lon": "11.889924"
  },
  {
    "name": "Grevebergsgatan",
    "id": "9022014002765001",
    "lat": "57.646969",
    "lon": "11.889987"
  },
  {
    "name": "Mildvädersgatan",
    "id": "9022014004810001",
    "lat": "57.715673",
    "lon": "11.890913"
  },
  {
    "name": "Granhäll",
    "id": "9022014002745001",
    "lat": "57.774903",
    "lon": "11.891308"
  },
  {
    "name": "Klare Mosse",
    "id": "9022014003870002",
    "lat": "57.744780",
    "lon": "11.891704"
  },
  {
    "name": "Volvo Tuve L B",
    "id": "9021014007508000",
    "lat": "57.755522",
    "lon": "11.891866"
  },
  {
    "name": "Öxnäs",
    "id": "9022014007920002",
    "lat": "57.792747",
    "lon": "11.892144"
  },
  {
    "name": "Hasselbacken",
    "id": "9022014003125001",
    "lat": "57.817089",
    "lon": "11.892657"
  },
  {
    "name": "Vårväderstorget",
    "id": "9022014007550006",
    "lat": "57.713471",
    "lon": "11.892720"
  },
  {
    "name": "Bensingatan",
    "id": "9022014001320003",
    "lat": "57.698729",
    "lon": "11.892837"
  },
  {
    "name": "Väderilsgatan",
    "id": "9022014007560030",
    "lat": "57.727152",
    "lon": "11.892917"
  },
  {
    "name": "Önskevädersgatan",
    "id": "9022014007840001",
    "lat": "57.720276",
    "lon": "11.893034"
  },
  {
    "name": "Grevegårdsvägen",
    "id": "9022014002770002",
    "lat": "57.648937",
    "lon": "11.893070"
  },
  {
    "name": "Friskväderstorget",
    "id": "9022014002420001",
    "lat": "57.723521",
    "lon": "11.893232"
  },
  {
    "name": "Nya Varvsallén",
    "id": "9022014005100003",
    "lat": "57.677280",
    "lon": "11.893331"
  },
  {
    "name": "Länsmanstorget",
    "id": "9022014004637002",
    "lat": "57.732645",
    "lon": "11.893556"
  },
  {
    "name": "Temperaturgatan",
    "id": "9022014006700001",
    "lat": "57.732699",
    "lon": "11.895246"
  },
  {
    "name": "Klangfärgsgatan",
    "id": "9022014003840002",
    "lat": "57.661738",
    "lon": "11.895345"
  },
  {
    "name": "Bergkristallsgatan",
    "id": "9022014001370001",
    "lat": "57.658178",
    "lon": "11.895686"
  },
  {
    "name": "Varmfrontsgatan",
    "id": "9022014007280030",
    "lat": "57.737283",
    "lon": "11.895848"
  },
  {
    "name": "Höstvädersgatan",
    "id": "9022014003395002",
    "lat": "57.712113",
    "lon": "11.896127"
  },
  {
    "name": "Kaprifolgatan",
    "id": "9022014003770002",
    "lat": "57.672831",
    "lon": "11.896612"
  },
  {
    "name": "Åkered",
    "id": "9022014007630003",
    "lat": "57.634599",
    "lon": "11.896828"
  },
  {
    "name": "Trälåsvägen",
    "id": "9022014007060002",
    "lat": "57.669891",
    "lon": "11.897250"
  },
  {
    "name": "Kavåsvägen",
    "id": "9022014003810002",
    "lat": "57.664983",
    "lon": "11.897304"
  },
  {
    "name": "Ivarsbergsmotet",
    "id": "9022014003600002",
    "lat": "57.699699",
    "lon": "11.897421"
  },
  {
    "name": "Dalavägen",
    "id": "9022014002020002",
    "lat": "57.676651",
    "lon": "11.897969"
  },
  {
    "name": "Bräcke Östergård",
    "id": "9022014001767002",
    "lat": "57.706531",
    "lon": "11.898230"
  },
  {
    "name": "Björkhöjdsgatan",
    "id": "9022014001480001",
    "lat": "57.650214",
    "lon": "11.898365"
  },
  {
    "name": "Rosenhill",
    "id": "9022014005483002",
    "lat": "57.702261",
    "lon": "11.898698"
  },
  {
    "name": "Svärdslundsvägen",
    "id": "9022014006490002",
    "lat": "57.773896",
    "lon": "11.899084"
  },
  {
    "name": "Smaragdgatan",
    "id": "9022014006040004",
    "lat": "57.645485",
    "lon": "11.899138"
  },
  {
    "name": "Solstrålegatan",
    "id": "9022014006145002",
    "lat": "57.738029",
    "lon": "11.899165"
  },
  {
    "name": "Rud",
    "id": "9022014005500001",
    "lat": "57.657917",
    "lon": "11.899327"
  },
  {
    "name": "Kulörgatan",
    "id": "9022014004080001",
    "lat": "57.631471",
    "lon": "11.899543"
  },
  {
    "name": "Opaltorget Buss",
    "id": "9022014005175003",
    "lat": "57.640227",
    "lon": "11.900001"
  },
  {
    "name": "Näsbovägen",
    "id": "9022014005125001",
    "lat": "57.619677",
    "lon": "11.900100"
  },
  {
    "name": "Opaltorget",
    "id": "9022014005170001",
    "lat": "57.642870",
    "lon": "11.900199"
  },
  {
    "name": "Rödgatan",
    "id": "9022014005550002",
    "lat": "57.626788",
    "lon": "11.900298"
  },
  {
    "name": "Kungssten",
    "id": "9022014004100030",
    "lat": "57.680426",
    "lon": "11.900495"
  },
  {
    "name": "Hammarvägen",
    "id": "9022014003085002",
    "lat": "57.624630",
    "lon": "11.900612"
  },
  {
    "name": "Bolmörtsgatan",
    "id": "9022014001625002",
    "lat": "57.678539",
    "lon": "11.900972"
  },
  {
    "name": "Bärby",
    "id": "9022014001860002",
    "lat": "57.792837",
    "lon": "11.901053"
  },
  {
    "name": "Sälöfjordsgatan",
    "id": "9022014006570002",
    "lat": "57.713462",
    "lon": "11.901197"
  },
  {
    "name": "Skeppsbyggaregatan",
    "id": "9022014005850001",
    "lat": "57.724680",
    "lon": "11.901215"
  },
  {
    "name": "Oslogatan",
    "id": "9022014005210002",
    "lat": "57.704778",
    "lon": "11.901601"
  },
  {
    "name": "Smyckegatan",
    "id": "9022014006070002",
    "lat": "57.653702",
    "lon": "11.901700"
  },
  {
    "name": "Munspelsgatan",
    "id": "9022014004860002",
    "lat": "57.655356",
    "lon": "11.902437"
  },
  {
    "name": "Klara",
    "id": "9022014003850002",
    "lat": "57.740412",
    "lon": "11.902689"
  },
  {
    "name": "Kungssten Västerleden",
    "id": "9021014004101000",
    "lat": "57.680507",
    "lon": "11.903039"
  },
  {
    "name": "Briljantgatan",
    "id": "9022014001690004",
    "lat": "57.649063",
    "lon": "11.903084"
  },
  {
    "name": "Svartedalsgatan",
    "id": "9022014006460001",
    "lat": "57.728968",
    "lon": "11.903633"
  },
  {
    "name": "Jättestensskolan",
    "id": "9022014003650002",
    "lat": "57.721184",
    "lon": "11.903983"
  },
  {
    "name": "Pölsebo",
    "id": "9022014005395002",
    "lat": "57.700329",
    "lon": "11.904199"
  },
  {
    "name": "Stora Holms Gård",
    "id": "9022014006310002",
    "lat": "57.773537",
    "lon": "11.904280"
  },
  {
    "name": "Vårvindsgatan",
    "id": "9022014007540002",
    "lat": "57.706837",
    "lon": "11.904280"
  },
  {
    "name": "Orustgatan",
    "id": "9022014005195002",
    "lat": "57.683995",
    "lon": "11.905413"
  },
  {
    "name": "Kyrkbytorget",
    "id": "9022014004180002",
    "lat": "57.711466",
    "lon": "11.906105"
  },
  {
    "name": "Kalshed",
    "id": "9022014003800002",
    "lat": "57.792486",
    "lon": "11.906240"
  },
  {
    "name": "Gunnesby Bro",
    "id": "9022014002900001",
    "lat": "57.812703",
    "lon": "11.906302"
  },
  {
    "name": "Kannebäck",
    "id": "9022014003740002",
    "lat": "57.636622",
    "lon": "11.907768"
  },
  {
    "name": "Bockkranen",
    "id": "9021014001595000",
    "lat": "57.697335",
    "lon": "11.907831"
  },
  {
    "name": "Eriksbergsdockan",
    "id": "9022014005217002",
    "lat": "57.700643",
    "lon": "11.908001"
  },
  {
    "name": "Frölunda Torg",
    "id": "9022014002530072",
    "lat": "57.652164",
    "lon": "11.908613"
  },
  {
    "name": "Gunnesby Skola",
    "id": "9022014002910001",
    "lat": "57.815615",
    "lon": "11.908882"
  },
  {
    "name": "Kringlekullen",
    "id": "9022014004015001",
    "lat": "57.817997",
    "lon": "11.909053"
  },
  {
    "name": "Brunstorp",
    "id": "9022014001762002",
    "lat": "57.807345",
    "lon": "11.909341"
  },
  {
    "name": "Sandarna",
    "id": "9022014005660001",
    "lat": "57.682773",
    "lon": "11.909521"
  },
  {
    "name": "Eketrägatan",
    "id": "9022014002190012",
    "lat": "57.716905",
    "lon": "11.909835"
  },
  {
    "name": "Krabbeliderna",
    "id": "9022014004007002",
    "lat": "57.730946",
    "lon": "11.910671"
  },
  {
    "name": "Gunnesby Kalsbogård",
    "id": "9022014006380001",
    "lat": "57.823382",
    "lon": "11.911004"
  },
  {
    "name": "Säve Station",
    "id": "9022014006610002",
    "lat": "57.804145",
    "lon": "11.911184"
  },
  {
    "name": "Frölunda Torg Spårvagn",
    "id": "9022014002540001",
    "lat": "57.652596",
    "lon": "11.911255"
  },
  {
    "name": "Vagnhallen Majorna",
    "id": "9022014007200031",
    "lat": "57.689110",
    "lon": "11.911363"
  },
  {
    "name": "Bärby Korsväg",
    "id": "9022014001880003",
    "lat": "57.792846",
    "lon": "11.911660"
  },
  {
    "name": "Klippans Färjeläge",
    "id": "9022014003895001",
    "lat": "57.692589",
    "lon": "11.911813"
  },
  {
    "name": "Sävedal",
    "id": "9022014006589002",
    "lat": "57.802149",
    "lon": "11.912029"
  },
  {
    "name": "Fyrktorget",
    "id": "9022014002580004",
    "lat": "57.673037",
    "lon": "11.912083"
  },
  {
    "name": "Trafikövningsbanan",
    "id": "9022014007000002",
    "lat": "57.773258",
    "lon": "11.912118"
  },
  {
    "name": "Bjurslättsliden",
    "id": "9021014001470000",
    "lat": "57.735234",
    "lon": "11.912136"
  },
  {
    "name": "Klippan",
    "id": "9022014003890002",
    "lat": "57.689910",
    "lon": "11.912352"
  },
  {
    "name": "Bärby Norra",
    "id": "9022014001890001",
    "lat": "57.795156",
    "lon": "11.912595"
  },
  {
    "name": "Eriksbergstorget",
    "id": "9022014002240002",
    "lat": "57.702405",
    "lon": "11.912784"
  },
  {
    "name": "Danaplatsen",
    "id": "9022014002025001",
    "lat": "57.705039",
    "lon": "11.912802"
  },
  {
    "name": "Tolvskillingsgatan",
    "id": "9022014006790002",
    "lat": "57.675626",
    "lon": "11.913035"
  },
  {
    "name": "Skålvisered",
    "id": "9022014005950001",
    "lat": "57.827634",
    "lon": "11.913395"
  },
  {
    "name": "Säve Kvarn",
    "id": "9021014006581000",
    "lat": "57.802491",
    "lon": "11.913548"
  },
  {
    "name": "Vendernas Gata",
    "id": "9022014007380002",
    "lat": "57.733813",
    "lon": "11.914312"
  },
  {
    "name": "Hults Bro",
    "id": "9022014003240002",
    "lat": "57.640209",
    "lon": "11.914905"
  },
  {
    "name": "Välen",
    "id": "9022014007515001",
    "lat": "57.635489",
    "lon": "11.914950"
  },
  {
    "name": "Jaegerdorffsplatsen",
    "id": "9022014003610002",
    "lat": "57.691447",
    "lon": "11.915013"
  },
  {
    "name": "Ostindiegatan",
    "id": "9022014005220002",
    "lat": "57.687807",
    "lon": "11.915103"
  },
  {
    "name": "Eriksbergs Färjeläge",
    "id": "9021014002239000",
    "lat": "57.700499",
    "lon": "11.915166"
  },
  {
    "name": "Smedjeholm",
    "id": "9022014006050002",
    "lat": "57.772737",
    "lon": "11.915561"
  },
  {
    "name": "Lundby Gamla Kyrka",
    "id": "9022014004550002",
    "lat": "57.712896",
    "lon": "11.915921"
  },
  {
    "name": "Gerdas gård",
    "id": "9021014002695000",
    "lat": "57.670943",
    "lon": "11.915930"
  },
  {
    "name": "Sannaplan",
    "id": "9022014005710004",
    "lat": "57.684202",
    "lon": "11.916280"
  },
  {
    "name": "Ängås",
    "id": "9022014007730002",
    "lat": "57.643490",
    "lon": "11.916838"
  },
  {
    "name": "Toftaåsgatan",
    "id": "9022014002515002",
    "lat": "57.645845",
    "lon": "11.917045"
  },
  {
    "name": "Nordängen",
    "id": "9022014005020001",
    "lat": "57.830600",
    "lon": "11.917054"
  },
  {
    "name": "Hinnebäcksgatan",
    "id": "9021014003160000",
    "lat": "57.752142",
    "lon": "11.917323"
  },
  {
    "name": "Chapmans Torg",
    "id": "9022014001980003",
    "lat": "57.693101",
    "lon": "11.917386"
  },
  {
    "name": "Positivgatan",
    "id": "9022014005330001",
    "lat": "57.656650",
    "lon": "11.917548"
  },
  {
    "name": "Gropegårdsgatan",
    "id": "9022014002790004",
    "lat": "57.718280",
    "lon": "11.917566"
  },
  {
    "name": "Gjutegården",
    "id": "9022014002715001",
    "lat": "57.632865",
    "lon": "11.917755"
  },
  {
    "name": "Kustgatan",
    "id": "9022014004130001",
    "lat": "57.692778",
    "lon": "11.918222"
  },
  {
    "name": "Säterigatan",
    "id": "9022014006580001",
    "lat": "57.709048",
    "lon": "11.918285"
  },
  {
    "name": "Toleredsgatan",
    "id": "9022014006780001",
    "lat": "57.731045",
    "lon": "11.918878"
  },
  {
    "name": "Sjupundsgatan",
    "id": "9022014005790002",
    "lat": "57.675321",
    "lon": "11.919031"
  },
  {
    "name": "Västra Frölunda Kyrka",
    "id": "9022014007590001",
    "lat": "57.649656",
    "lon": "11.919364"
  },
  {
    "name": "Sörhallstorget",
    "id": "9022014002238002",
    "lat": "57.703034",
    "lon": "11.919580"
  },
  {
    "name": "Norumshöjd",
    "id": "9022014005080001",
    "lat": "57.756601",
    "lon": "11.919795"
  },
  {
    "name": "Mariaplan",
    "id": "9022014004730004",
    "lat": "57.686593",
    "lon": "11.920245"
  },
  {
    "name": "Musikvägen",
    "id": "9022014004870001",
    "lat": "57.658960",
    "lon": "11.920505"
  },
  {
    "name": "Lillövägen",
    "id": "9021014004485000",
    "lat": "57.596899",
    "lon": "11.920874"
  },
  {
    "name": "Klobergslyckan",
    "id": "9022014003897001",
    "lat": "57.835607",
    "lon": "11.921413"
  },
  {
    "name": "Bygdegården",
    "id": "9022014001800002",
    "lat": "57.771865",
    "lon": "11.921845"
  },
  {
    "name": "Nordviksgatan",
    "id": "9022014005012002",
    "lat": "57.706972",
    "lon": "11.921935"
  },
  {
    "name": "Blåsutgatan",
    "id": "9022014001580001",
    "lat": "57.692733",
    "lon": "11.922537"
  },
  {
    "name": "Hultåsen",
    "id": "9021014003245000",
    "lat": "57.631984",
    "lon": "11.922555"
  },
  {
    "name": "Nymilsgatan",
    "id": "9022014005110004",
    "lat": "57.662907",
    "lon": "11.923661"
  },
  {
    "name": "Lantmilsgatan",
    "id": "9022014004320006",
    "lat": "57.666619",
    "lon": "11.923715"
  },
  {
    "name": "Norumsgärde",
    "id": "9022014005070002",
    "lat": "57.758084",
    "lon": "11.924344"
  },
  {
    "name": "Gråberget",
    "id": "9021014002810000",
    "lat": "57.689461",
    "lon": "11.924811"
  },
  {
    "name": "Ugglegården",
    "id": "9022014007170002",
    "lat": "57.597753",
    "lon": "11.925234"
  },
  {
    "name": "Bjurslätts Torg",
    "id": "9022014001475002",
    "lat": "57.728627",
    "lon": "11.925422"
  },
  {
    "name": "Skändla Rös",
    "id": "9022014005985002",
    "lat": "57.790194",
    "lon": "11.925467"
  },
  {
    "name": "Godhemsgatan",
    "id": "9022014002730006",
    "lat": "57.684597",
    "lon": "11.925611"
  },
  {
    "name": "Tomtebacken",
    "id": "9022014006800001",
    "lat": "57.837468",
    "lon": "11.926178"
  },
  {
    "name": "Rambergsvallen",
    "id": "9022014005440002",
    "lat": "57.719377",
    "lon": "11.926690"
  },
  {
    "name": "Assmundtorp",
    "id": "9022014001190002",
    "lat": "57.788090",
    "lon": "11.926771"
  },
  {
    "name": "Axel Dahlströms Torg",
    "id": "9022014001200006",
    "lat": "57.672507",
    "lon": "11.926852"
  },
  {
    "name": "Kaptensgatan",
    "id": "9022014003780001",
    "lat": "57.696940",
    "lon": "11.927005"
  },
  {
    "name": "Slottsberget",
    "id": "9021014006030000",
    "lat": "57.703133",
    "lon": "11.927499"
  },
  {
    "name": "Ramberget",
    "id": "9022014005435001",
    "lat": "57.714424",
    "lon": "11.927571"
  },
  {
    "name": "Ekedal",
    "id": "9022014002170006",
    "lat": "57.687105",
    "lon": "11.927580"
  },
  {
    "name": "Klintens Väg",
    "id": "9022014003880004",
    "lat": "57.682548",
    "lon": "11.927697"
  },
  {
    "name": "Tuve Centrum",
    "id": "9022014007100001",
    "lat": "57.754228",
    "lon": "11.928344"
  },
  {
    "name": "Brunnehagen",
    "id": "9022014001730001",
    "lat": "57.750318",
    "lon": "11.928371"
  },
  {
    "name": "Radiovägen",
    "id": "9022014005420001",
    "lat": "57.649800",
    "lon": "11.928892"
  },
  {
    "name": "Lantmannagatan",
    "id": "9022014004315001",
    "lat": "57.716905",
    "lon": "11.929593"
  },
  {
    "name": "Tuve Prästgård",
    "id": "9022014007110001",
    "lat": "57.764206",
    "lon": "11.929611"
  },
  {
    "name": "Holmvägen",
    "id": "9022014003220004",
    "lat": "57.770903",
    "lon": "11.929647"
  },
  {
    "name": "Högsbogatan",
    "id": "9022014003360004",
    "lat": "57.680184",
    "lon": "11.929980"
  },
  {
    "name": "Brända Berget",
    "id": "9022014001770002",
    "lat": "57.599784",
    "lon": "11.930115"
  },
  {
    "name": "Herkulesgatan",
    "id": "9022014003135001",
    "lat": "57.712869",
    "lon": "11.930519"
  },
  {
    "name": "Sannegårdshamnen",
    "id": "9022014005730001",
    "lat": "57.707763",
    "lon": "11.930717"
  },
  {
    "name": "Bergsgårdsvägen",
    "id": "9022014001380001",
    "lat": "57.767118",
    "lon": "11.931014"
  },
  {
    "name": "Askims Stationsväg",
    "id": "9022014001173002",
    "lat": "57.634923",
    "lon": "11.931337"
  },
  {
    "name": "Pilegården",
    "id": "9022014005283002",
    "lat": "57.638761",
    "lon": "11.931751"
  },
  {
    "name": "Sändaregatan",
    "id": "9022014006560002",
    "lat": "57.653036",
    "lon": "11.931841"
  },
  {
    "name": "Trollängen",
    "id": "9022014007015001",
    "lat": "57.630770",
    "lon": "11.932128"
  },
  {
    "name": "Bolsten",
    "id": "9022014001630001",
    "lat": "57.840318",
    "lon": "11.932434"
  },
  {
    "name": "Bokekullsgatan",
    "id": "9022014001620001",
    "lat": "57.677352",
    "lon": "11.932623"
  },
  {
    "name": "Djurgårdsskolan",
    "id": "9022014002057002",
    "lat": "57.696373",
    "lon": "11.932821"
  },
  {
    "name": "Radiotorget",
    "id": "9022014005410002",
    "lat": "57.657279",
    "lon": "11.933009"
  },
  {
    "name": "Skändla Södra",
    "id": "9022014005990001",
    "lat": "57.777231",
    "lon": "11.933063"
  },
  {
    "name": "Gunnesgärde",
    "id": "9022014002920002",
    "lat": "57.748987",
    "lon": "11.933225"
  },
  {
    "name": "Snarberget",
    "id": "9022014006110002",
    "lat": "57.762498",
    "lon": "11.933270"
  },
  {
    "name": "Radiomotet",
    "id": "9022014005421002",
    "lat": "57.648479",
    "lon": "11.933279"
  },
  {
    "name": "Majvallen",
    "id": "9022014004700005",
    "lat": "57.689946",
    "lon": "11.933486"
  },
  {
    "name": "Stigbergstorget",
    "id": "9022014006260002",
    "lat": "57.698944",
    "lon": "11.933567"
  },
  {
    "name": "Wieselgrensplatsen",
    "id": "9022014007430007",
    "lat": "57.720671",
    "lon": "11.933639"
  },
  {
    "name": "Skändla Norra",
    "id": "9022014005980002",
    "lat": "57.784036",
    "lon": "11.933854"
  },
  {
    "name": "Askimsbadet",
    "id": "9022014001175001",
    "lat": "57.626563",
    "lon": "11.934124"
  },
  {
    "name": "Marklandsgatan",
    "id": "9022014004760013",
    "lat": "57.674664",
    "lon": "11.934169"
  },
  {
    "name": "Armlängdsgatan",
    "id": "9022014001150002",
    "lat": "57.660776",
    "lon": "11.934322"
  },
  {
    "name": "Wieselgrensgatan",
    "id": "9022014007420004",
    "lat": "57.727925",
    "lon": "11.934538"
  },
  {
    "name": "Fjällgatan",
    "id": "9022014002370005",
    "lat": "57.694773",
    "lon": "11.934591"
  },
  {
    "name": "Bjurslättsskolan",
    "id": "9022014001465001",
    "lat": "57.724186",
    "lon": "11.934753"
  },
  {
    "name": "Synhållsgatan",
    "id": "9022014006500002",
    "lat": "57.664048",
    "lon": "11.934897"
  },
  {
    "name": "Tvärhandsgatan",
    "id": "9022014007120002",
    "lat": "57.667680",
    "lon": "11.935248"
  },
  {
    "name": "Högsboleden",
    "id": "9022014003363002",
    "lat": "57.673118",
    "lon": "11.935257"
  },
  {
    "name": "Skogomevägen",
    "id": "9022014005875001",
    "lat": "57.767918",
    "lon": "11.935670"
  },
  {
    "name": "Enebacken",
    "id": "9022014002227002",
    "lat": "57.599883",
    "lon": "11.935733"
  },
  {
    "name": "Hovåsskolan",
    "id": "9022014003237002",
    "lat": "57.621799",
    "lon": "11.936416"
  },
  {
    "name": "Lindholmen",
    "id": "9022014004490030",
    "lat": "57.707637",
    "lon": "11.936587"
  },
  {
    "name": "Högsbo",
    "id": "9022014003350002",
    "lat": "57.669442",
    "lon": "11.936929"
  },
  {
    "name": "Tångenvägen",
    "id": "9022014007140002",
    "lat": "57.760574",
    "lon": "11.937486"
  },
  {
    "name": "Taklöksvägen",
    "id": "9022014006665001",
    "lat": "57.730865",
    "lon": "11.937549"
  },
  {
    "name": "Finlandsvägen",
    "id": "9022014002335002",
    "lat": "57.748475",
    "lon": "11.937774"
  },
  {
    "name": "Glöstorpsvägen",
    "id": "9022014002720001",
    "lat": "57.752457",
    "lon": "11.938394"
  },
  {
    "name": "Fjällskolan",
    "id": "9022014002390004",
    "lat": "57.695079",
    "lon": "11.938771"
  },
  {
    "name": "Olof Asklunds Gata",
    "id": "9022014005380002",
    "lat": "57.660363",
    "lon": "11.939032"
  },
  {
    "name": "Johannesberg",
    "id": "9022014003625002",
    "lat": "57.586121",
    "lon": "11.939149"
  },
  {
    "name": "Frölunda Smedja",
    "id": "9022014002525002",
    "lat": "57.648092",
    "lon": "11.939194"
  },
  {
    "name": "Sehlstedtsgatan",
    "id": "9022014005750001",
    "lat": "57.727548",
    "lon": "11.939275"
  },
  {
    "name": "Hovås Nedre",
    "id": "9022014003235002",
    "lat": "57.616909",
    "lon": "11.939329"
  },
  {
    "name": "Amalia Jönssons Gata",
    "id": "9022014002510002",
    "lat": "57.655095",
    "lon": "11.939410"
  },
  {
    "name": "F O Peterssons Gata",
    "id": "9022014002550002",
    "lat": "57.651095",
    "lon": "11.939518"
  },
  {
    "name": "Pilegårdsvägen",
    "id": "9022014005285002",
    "lat": "57.643750",
    "lon": "11.939634"
  },
  {
    "name": "Beatrice Lesslies Gata",
    "id": "9022014002500002",
    "lat": "57.657989",
    "lon": "11.939670"
  },
  {
    "name": "Lindholmspiren",
    "id": "9021014004493000",
    "lat": "57.705515",
    "lon": "11.939940"
  },
  {
    "name": "Skintebo",
    "id": "9022014005865030",
    "lat": "57.589222",
    "lon": "11.939976"
  },
  {
    "name": "J A Wettergrens Gata",
    "id": "9021014004920000",
    "lat": "57.665028",
    "lon": "11.940102"
  },
  {
    "name": "Grimbo",
    "id": "9022014002780001",
    "lat": "57.741769",
    "lon": "11.940156"
  },
  {
    "name": "Bockhornsgatan",
    "id": "9022014001590001",
    "lat": "57.693605",
    "lon": "11.940479"
  },
  {
    "name": "Billdal",
    "id": "9022014001457002",
    "lat": "57.577581",
    "lon": "11.941028"
  },
  {
    "name": "Granliden",
    "id": "9022014002755001",
    "lat": "57.612531",
    "lon": "11.941055"
  },
  {
    "name": "Kobbegården",
    "id": "9022014003932002",
    "lat": "57.640604",
    "lon": "11.941136"
  },
  {
    "name": "Lona Knapes Gata",
    "id": "9022014004535002",
    "lat": "57.649486",
    "lon": "11.941711"
  },
  {
    "name": "Bäckedalsvägen",
    "id": "9022014001840001",
    "lat": "57.734694",
    "lon": "11.941729"
  },
  {
    "name": "Paradisgatan",
    "id": "9022014004790001",
    "lat": "57.695645",
    "lon": "11.941882"
  },
  {
    "name": "Askims Kyrka",
    "id": "9022014001178002",
    "lat": "57.615408",
    "lon": "11.942017"
  },
  {
    "name": "Billdals Kyrka",
    "id": "9022014003973001",
    "lat": "57.575136",
    "lon": "11.942214"
  },
  {
    "name": "Billdals Gård",
    "id": "9022014001458002",
    "lat": "57.582067",
    "lon": "11.942421"
  },
  {
    "name": "Hildedalsgatan",
    "id": "9022014003145001",
    "lat": "57.732213",
    "lon": "11.942421"
  },
  {
    "name": "Regnbågsgatan",
    "id": "9022014005465003",
    "lat": "57.710630",
    "lon": "11.942430"
  },
  {
    "name": "Masthugget",
    "id": "9021014004770000",
    "lat": "57.693569",
    "lon": "11.942511"
  },
  {
    "name": "Kobbegårdsvägen",
    "id": "9022014003935001",
    "lat": "57.641575",
    "lon": "11.942592"
  },
  {
    "name": "Ragnhildsholmen",
    "id": "9022014005430001",
    "lat": "57.843095",
    "lon": "11.942664"
  },
  {
    "name": "Backa",
    "id": "9022014001210001",
    "lat": "57.636253",
    "lon": "11.943077"
  },
  {
    "name": "Västra Lindås",
    "id": "9022014007592001",
    "lat": "57.566263",
    "lon": "11.943131"
  },
  {
    "name": "Vågmästareplatsen",
    "id": "9022014007520003",
    "lat": "57.720806",
    "lon": "11.943671"
  },
  {
    "name": "Anders Carlssons Gata",
    "id": "9022014001095002",
    "lat": "57.708410",
    "lon": "11.943814"
  },
  {
    "name": "Masthuggstorget",
    "id": "9022014004780004",
    "lat": "57.699349",
    "lon": "11.943850"
  },
  {
    "name": "Östra Lindås",
    "id": "9022014007883002",
    "lat": "57.570794",
    "lon": "11.944003"
  },
  {
    "name": "Swedenborgsplatsen",
    "id": "9022014006470003",
    "lat": "57.727386",
    "lon": "11.944381"
  },
  {
    "name": "Björnsonsgatan",
    "id": "9022014001530001",
    "lat": "57.729499",
    "lon": "11.944552"
  },
  {
    "name": "Lövviksvägen",
    "id": "9022014004663001",
    "lat": "57.610293",
    "lon": "11.944893"
  },
  {
    "name": "Trollåsen",
    "id": "9022014007013002",
    "lat": "57.626806",
    "lon": "11.944911"
  },
  {
    "name": "Madängsgatan",
    "id": "9022014004680002",
    "lat": "57.717381",
    "lon": "11.944920"
  },
  {
    "name": "Ringestensvägen",
    "id": "9021014005477000",
    "lat": "57.632424",
    "lon": "11.945244"
  },
  {
    "name": "Botaniska Trädgården",
    "id": "9022014006370004",
    "lat": "57.680202",
    "lon": "11.945648"
  },
  {
    "name": "Pumpgatan",
    "id": "9022014005355002",
    "lat": "57.712689",
    "lon": "11.946017"
  },
  {
    "name": "Sandås",
    "id": "9022014005685001",
    "lat": "57.599191",
    "lon": "11.946206"
  },
  {
    "name": "Jungmansgatan",
    "id": "9022014003630001",
    "lat": "57.694719",
    "lon": "11.946322"
  },
  {
    "name": "Otterbäck",
    "id": "9022014005225002",
    "lat": "57.621556",
    "lon": "11.946358"
  },
  {
    "name": "Lillhagsparken Södra",
    "id": "9022014004465003",
    "lat": "57.756862",
    "lon": "11.946475"
  },
  {
    "name": "Vassgången",
    "id": "9022014007335002",
    "lat": "57.606391",
    "lon": "11.946511"
  },
  {
    "name": "Snipen",
    "id": "9022014006125005",
    "lat": "57.562155",
    "lon": "11.947257"
  },
  {
    "name": "Högen",
    "id": "9022014003345002",
    "lat": "57.601591",
    "lon": "11.947482"
  },
  {
    "name": "Skälltorpsvägen",
    "id": "9022014005970002",
    "lat": "57.754102",
    "lon": "11.947635"
  },
  {
    "name": "Köpcentrum 421",
    "id": "9022014002560001",
    "lat": "57.649953",
    "lon": "11.947806"
  },
  {
    "name": "Oscar Fredriks Kyrka",
    "id": "9022014005200002",
    "lat": "57.696328",
    "lon": "11.947985"
  },
  {
    "name": "Vegagatan",
    "id": "9022014007360002",
    "lat": "57.693973",
    "lon": "11.948012"
  },
  {
    "name": "Hög",
    "id": "9022014003330001",
    "lat": "57.844614",
    "lon": "11.948435"
  },
  {
    "name": "Bassås",
    "id": "9022014001295002",
    "lat": "57.597717",
    "lon": "11.948525"
  },
  {
    "name": "Hästebäck",
    "id": "9022014003320002",
    "lat": "57.590040",
    "lon": "11.948947"
  },
  {
    "name": "Hantverksvägen",
    "id": "9022014003122001",
    "lat": "57.641467",
    "lon": "11.949055"
  },
  {
    "name": "Järnvågen",
    "id": "9022014003645002",
    "lat": "57.701398",
    "lon": "11.949136"
  },
  {
    "name": "Lillhagsparken Norra",
    "id": "9022014004470001",
    "lat": "57.760592",
    "lon": "11.949361"
  },
  {
    "name": "Uggledal",
    "id": "9022014007165002",
    "lat": "57.592818",
    "lon": "11.949487"
  },
  {
    "name": "Sankt Jörgens Park",
    "id": "9022014005690001",
    "lat": "57.749482",
    "lon": "11.949639"
  },
  {
    "name": "Skogome",
    "id": "9021014005870000",
    "lat": "57.766525",
    "lon": "11.949819"
  },
  {
    "name": "Prinsgatan",
    "id": "9022014005337003",
    "lat": "57.697416",
    "lon": "11.950511"
  },
  {
    "name": "Järntorget",
    "id": "9022014003640010",
    "lat": "57.700167",
    "lon": "11.950817"
  },
  {
    "name": "Knapehall",
    "id": "9022014003925001",
    "lat": "57.636775",
    "lon": "11.950844"
  },
  {
    "name": "Lillhagens station",
    "id": "9022014004480002",
    "lat": "57.747558",
    "lon": "11.950979"
  },
  {
    "name": "Stora Åvägen",
    "id": "9022014006323002",
    "lat": "57.640254",
    "lon": "11.951320"
  },
  {
    "name": "Hugo Hammars Kaj",
    "id": "9022014003238001",
    "lat": "57.709605",
    "lon": "11.951536"
  },
  {
    "name": "Hjalmar Brantingsplatsen",
    "id": "9022014003180004",
    "lat": "57.720851",
    "lon": "11.951968"
  },
  {
    "name": "Linnéplatsen",
    "id": "9022014004510001",
    "lat": "57.690243",
    "lon": "11.952004"
  },
  {
    "name": "Brottkärrsmotet",
    "id": "9022014001715002",
    "lat": "57.599820",
    "lon": "11.952031"
  },
  {
    "name": "Olivedalsgatan",
    "id": "9022014005140006",
    "lat": "57.692130",
    "lon": "11.952417"
  },
  {
    "name": "Berghöjdsgatan",
    "id": "9022014001360002",
    "lat": "57.744591",
    "lon": "11.952453"
  },
  {
    "name": "Skogabergsgatan",
    "id": "9022014005868001",
    "lat": "57.747576",
    "lon": "11.953361"
  },
  {
    "name": "Datavägen",
    "id": "9021014002035000",
    "lat": "57.641431",
    "lon": "11.953451"
  },
  {
    "name": "Lyckhem",
    "id": "9021014004565000",
    "lat": "57.600485",
    "lon": "11.954035"
  },
  {
    "name": "Sankt Jörgens Allé",
    "id": "9022014005688001",
    "lat": "57.748951",
    "lon": "11.954260"
  },
  {
    "name": "Annedalskyrkan",
    "id": "9022014001100001",
    "lat": "57.685398",
    "lon": "11.954610"
  },
  {
    "name": "Norra Långebergsgatan",
    "id": "9022014005045001",
    "lat": "57.649944",
    "lon": "11.954718"
  },
  {
    "name": "Sisjö Kullegata",
    "id": "9022014005775002",
    "lat": "57.643328",
    "lon": "11.954853"
  },
  {
    "name": "Sisjöbäckens väg",
    "id": "9022014005779001",
    "lat": "57.636397",
    "lon": "11.955177"
  },
  {
    "name": "Stora Arödsgatan",
    "id": "9022014006300001",
    "lat": "57.738209",
    "lon": "11.955815"
  },
  {
    "name": "Minelundsvägen",
    "id": "9022014004815001",
    "lat": "57.730029",
    "lon": "11.956282"
  },
  {
    "name": "Stenpiren",
    "id": "9022014006242005",
    "lat": "57.705839",
    "lon": "11.956282"
  },
  {
    "name": "Brunnsgatan",
    "id": "9022014001745004",
    "lat": "57.693802",
    "lon": "11.956894"
  },
  {
    "name": "Seminariegatan",
    "id": "9022014005763002",
    "lat": "57.692077",
    "lon": "11.957190"
  },
  {
    "name": "Aröds Äng",
    "id": "9022014001160001",
    "lat": "57.734569",
    "lon": "11.957496"
  },
  {
    "name": "Skogsbrynet",
    "id": "9022014005880002",
    "lat": "57.754120",
    "lon": "11.958512"
  },
  {
    "name": "Kvillängen",
    "id": "9022014004160001",
    "lat": "57.732123",
    "lon": "11.958844"
  },
  {
    "name": "Frihamnsporten",
    "id": "9022014002472002",
    "lat": "57.718253",
    "lon": "11.959051"
  },
  {
    "name": "Gåsmossen",
    "id": "9022014002977002",
    "lat": "57.633611",
    "lon": "11.959537"
  },
  {
    "name": "Frihamnen",
    "id": "9022014002470002",
    "lat": "57.720384",
    "lon": "11.959617"
  },
  {
    "name": "Sahlgrenska Huvudentré",
    "id": "9022014005600003",
    "lat": "57.683600",
    "lon": "11.959878"
  },
  {
    "name": "Pilgatan",
    "id": "9022014005279002",
    "lat": "57.696715",
    "lon": "11.960274"
  },
  {
    "name": "Tingstadsvass",
    "id": "9022014006770001",
    "lat": "57.726568",
    "lon": "11.960435"
  },
  {
    "name": "Åketorpsgatan",
    "id": "9022014007635002",
    "lat": "57.754776",
    "lon": "11.960966"
  },
  {
    "name": "Handelshögskolan",
    "id": "9022014004370004",
    "lat": "57.697722",
    "lon": "11.961703"
  },
  {
    "name": "Sahlgrenska",
    "id": "9022014005597023",
    "lat": "57.682467",
    "lon": "11.962188"
  },
  {
    "name": "Hagakyrkan",
    "id": "9022014003040002",
    "lat": "57.699600",
    "lon": "11.962530"
  },
  {
    "name": "Varpemossen",
    "id": "9022014007282001",
    "lat": "57.633728",
    "lon": "11.962530"
  },
  {
    "name": "Grönsakstorget",
    "id": "9022014002850004",
    "lat": "57.702531",
    "lon": "11.963618"
  },
  {
    "name": "Domkyrkan",
    "id": "9022014002130001",
    "lat": "57.704455",
    "lon": "11.963636"
  },
  {
    "name": "Medicinaregatan",
    "id": "9022014004800002",
    "lat": "57.685263",
    "lon": "11.964157"
  },
  {
    "name": "Anekdotgatan",
    "id": "9022014001090002",
    "lat": "57.727305",
    "lon": "11.964211"
  },
  {
    "name": "Operan",
    "id": "9022014005180002",
    "lat": "57.710594",
    "lon": "11.964229"
  },
  {
    "name": "Askims Svartmosse",
    "id": "9021014001179000",
    "lat": "57.629925",
    "lon": "11.964606"
  },
  {
    "name": "Smidesgatan",
    "id": "9022014006060001",
    "lat": "57.720995",
    "lon": "11.964705"
  },
  {
    "name": "Ellered",
    "id": "9022014002220001",
    "lat": "57.847536",
    "lon": "11.965101"
  },
  {
    "name": "Sahlgrenska Södra",
    "id": "9022014005595002",
    "lat": "57.681739",
    "lon": "11.965137"
  },
  {
    "name": "Vasa Viktoriagatan",
    "id": "9022014007320003",
    "lat": "57.698585",
    "lon": "11.965317"
  },
  {
    "name": "Lilla Bommens Hamn",
    "id": "9021014004381000",
    "lat": "57.711817",
    "lon": "11.966027"
  },
  {
    "name": "Lilla Bommen",
    "id": "9021014004380000",
    "lat": "57.709552",
    "lon": "11.966036"
  },
  {
    "name": "Brunnsparken",
    "id": "9022014001760011",
    "lat": "57.706783",
    "lon": "11.966548"
  },
  {
    "name": "Båtsman Grås Gata",
    "id": "9022014001807001",
    "lat": "57.758057",
    "lon": "11.967348"
  },
  {
    "name": "Wavrinskys Plats",
    "id": "9022014007340030",
    "lat": "57.689065",
    "lon": "11.967582"
  },
  {
    "name": "Stenkolsgatan",
    "id": "9022014006240001",
    "lat": "57.721408",
    "lon": "11.967591"
  },
  {
    "name": "Båtsman Kapers Gata",
    "id": "9022014001806002",
    "lat": "57.761240",
    "lon": "11.967618"
  },
  {
    "name": "Södermalmsgatan",
    "id": "9022014006630001",
    "lat": "57.678728",
    "lon": "11.969200"
  },
  {
    "name": "Vasaplatsen",
    "id": "9022014007300003",
    "lat": "57.699538",
    "lon": "11.969254"
  },
  {
    "name": "Kungsportsplatsen",
    "id": "9022014004090001",
    "lat": "57.704203",
    "lon": "11.969569"
  },
  {
    "name": "Brunnsbotorget",
    "id": "9022014001740004",
    "lat": "57.727278",
    "lon": "11.969991"
  },
  {
    "name": "Nordstan",
    "id": "9022014004945003",
    "lat": "57.709399",
    "lon": "11.970458"
  },
  {
    "name": "Backered",
    "id": "9022014001230002",
    "lat": "57.848588",
    "lon": "11.970638"
  },
  {
    "name": "Nils Ericson Terminalen",
    "id": "9022014004940020",
    "lat": "57.709911",
    "lon": "11.970989"
  },
  {
    "name": "Olshammarsgatan",
    "id": "9022014005155002",
    "lat": "57.755253",
    "lon": "11.971232"
  },
  {
    "name": "Manufakturgatan",
    "id": "9022014004720001",
    "lat": "57.722217",
    "lon": "11.971375"
  },
  {
    "name": "Båtsman Hisings Gata",
    "id": "9022014001805002",
    "lat": "57.763208",
    "lon": "11.972328"
  },
  {
    "name": "Heden Nya Allén",
    "id": "9022014003128007",
    "lat": "57.702585",
    "lon": "11.972454"
  },
  {
    "name": "Kapellplatsen",
    "id": "9022014003760003",
    "lat": "57.694369",
    "lon": "11.972535"
  },
  {
    "name": "Chalmers",
    "id": "9022014001960002",
    "lat": "57.689928",
    "lon": "11.972589"
  },
  {
    "name": "Syster Estrids Gata",
    "id": "9022014006530002",
    "lat": "57.679375",
    "lon": "11.972697"
  },
  {
    "name": "Doktor Fries Torg",
    "id": "9022014002090002",
    "lat": "57.684463",
    "lon": "11.972715"
  },
  {
    "name": "Centralstationen",
    "id": "9022014001950005",
    "lat": "57.707817",
    "lon": "11.972957"
  },
  {
    "name": "Göteborg Central",
    "id": "9022014008000016",
    "lat": "57.709794",
    "lon": "11.973119"
  },
  {
    "name": "Backa Kyrkogata",
    "id": "9022014001220001",
    "lat": "57.741194",
    "lon": "11.973479"
  },
  {
    "name": "Björkrisvägen",
    "id": "9022014001490001",
    "lat": "57.738919",
    "lon": "11.973551"
  },
  {
    "name": "Valand",
    "id": "9022014007220002",
    "lat": "57.700418",
    "lon": "11.973560"
  },
  {
    "name": "Heden",
    "id": "9022014003127001",
    "lat": "57.702225",
    "lon": "11.974414"
  },
  {
    "name": "Fyrspannvägen",
    "id": "9021014002595000",
    "lat": "57.804585",
    "lon": "11.974701"
  },
  {
    "name": "Åkareplatsen",
    "id": "9022014007600023",
    "lat": "57.708734",
    "lon": "11.974764"
  },
  {
    "name": "Stålverksgatan",
    "id": "9022014006410001",
    "lat": "57.722936",
    "lon": "11.974809"
  },
  {
    "name": "Torsgatan",
    "id": "9022014006860002",
    "lat": "57.716266",
    "lon": "11.974926"
  },
  {
    "name": "Doktor Westrings Gata",
    "id": "9022014002120002",
    "lat": "57.679159",
    "lon": "11.975097"
  },
  {
    "name": "Doktor Sydows Gata",
    "id": "9022014002100003",
    "lat": "57.680642",
    "lon": "11.975124"
  },
  {
    "name": "Balladgatan",
    "id": "9022014001270002",
    "lat": "57.732087",
    "lon": "11.975169"
  },
  {
    "name": "Backereds Skola",
    "id": "9022014001240001",
    "lat": "57.851752",
    "lon": "11.975951"
  },
  {
    "name": "Skimmelvägen",
    "id": "9021014005866000",
    "lat": "57.807992",
    "lon": "11.976553"
  },
  {
    "name": "Fridhems Kyrkogård",
    "id": "9022014002460002",
    "lat": "57.763307",
    "lon": "11.976877"
  },
  {
    "name": "Sägengatan",
    "id": "9022014006550001",
    "lat": "57.746030",
    "lon": "11.977308"
  },
  {
    "name": "Polhemsplatsen",
    "id": "9021014005137000",
    "lat": "57.708320",
    "lon": "11.977317"
  },
  {
    "name": "Ålandsgatan",
    "id": "9022014007440002",
    "lat": "57.692319",
    "lon": "11.977497"
  },
  {
    "name": "Doktor Weltzins Gata",
    "id": "9022014002110002",
    "lat": "57.681092",
    "lon": "11.977812"
  },
  {
    "name": "Bessemergatan",
    "id": "9022014001430001",
    "lat": "57.723907",
    "lon": "11.978171"
  },
  {
    "name": "Götaplatsen",
    "id": "9022014003020002",
    "lat": "57.697515",
    "lon": "11.978872"
  },
  {
    "name": "Gerrebacka Gård",
    "id": "9021014002697000",
    "lat": "57.809862",
    "lon": "11.978908"
  },
  {
    "name": "Falutorget",
    "id": "9022014002320001",
    "lat": "57.717804",
    "lon": "11.979367"
  },
  {
    "name": "Vidblicksgatan",
    "id": "9022014007400001",
    "lat": "57.692517",
    "lon": "11.979780"
  },
  {
    "name": "Chalmers Tvärgata",
    "id": "9022014001970001",
    "lat": "57.689793",
    "lon": "11.980302"
  },
  {
    "name": "Berzeliigatan",
    "id": "9022014001420004",
    "lat": "57.699106",
    "lon": "11.980338"
  },
  {
    "name": "Tingstadsmotet",
    "id": "9022014006755002",
    "lat": "57.731225",
    "lon": "11.980410"
  },
  {
    "name": "Akkas Gata",
    "id": "9022014001020001",
    "lat": "57.754480",
    "lon": "11.980427"
  },
  {
    "name": "Selma Lagerlöfs Torg",
    "id": "9022014005760001",
    "lat": "57.749652",
    "lon": "11.980706"
  },
  {
    "name": "Doktor Forselius Gata",
    "id": "9022014002080002",
    "lat": "57.678737",
    "lon": "11.982468"
  },
  {
    "name": "Cold Stores",
    "id": "9022014001990002",
    "lat": "57.723719",
    "lon": "11.982504"
  },
  {
    "name": "Engdahlsgatan",
    "id": "9022014002230002",
    "lat": "57.686611",
    "lon": "11.983016"
  },
  {
    "name": "Ridhästvägen",
    "id": "9021014005476000",
    "lat": "57.810348",
    "lon": "11.983097"
  },
  {
    "name": "Spaldingsgatan",
    "id": "9021014006160000",
    "lat": "57.689658",
    "lon": "11.983268"
  },
  {
    "name": "Mossen",
    "id": "9022014004830002",
    "lat": "57.681137",
    "lon": "11.983942"
  },
  {
    "name": "Pilbågsgatan",
    "id": "9022014005280002",
    "lat": "57.684678",
    "lon": "11.984239"
  },
  {
    "name": "Gasverket",
    "id": "9022014002690002",
    "lat": "57.719314",
    "lon": "11.984410"
  },
  {
    "name": "Ullevi Södra",
    "id": "9022014007172004",
    "lat": "57.703780",
    "lon": "11.984832"
  },
  {
    "name": "Tryckerigatan",
    "id": "9022014007030001",
    "lat": "57.736052",
    "lon": "11.985291"
  },
  {
    "name": "Bergsprängaregatan",
    "id": "9022014001390001",
    "lat": "57.686314",
    "lon": "11.985524"
  },
  {
    "name": "Ullevi Norra",
    "id": "9022014007171003",
    "lat": "57.707322",
    "lon": "11.985560"
  },
  {
    "name": "Scandinavium",
    "id": "9022014005740004",
    "lat": "57.700239",
    "lon": "11.985713"
  },
  {
    "name": "Korsvägen",
    "id": "9022014003980003",
    "lat": "57.696841",
    "lon": "11.986235"
  },
  {
    "name": "Göddered",
    "id": "9022014002990001",
    "lat": "57.854826",
    "lon": "11.986405"
  },
  {
    "name": "Balamundi",
    "id": "9022014001260001",
    "lat": "57.733966",
    "lon": "11.986756"
  },
  {
    "name": "Körkarlens gata",
    "id": "9022014004290006",
    "lat": "57.757725",
    "lon": "11.986774"
  },
  {
    "name": "Carlandersplatsen",
    "id": "9022014001920002",
    "lat": "57.693101",
    "lon": "11.986927"
  },
  {
    "name": "Legendgatan",
    "id": "9022014004345001",
    "lat": "57.740870",
    "lon": "11.987008"
  },
  {
    "name": "Framnäsgatan",
    "id": "9022014002440002",
    "lat": "57.682809",
    "lon": "11.987232"
  },
  {
    "name": "Stena Metall",
    "id": "9022014006220001",
    "lat": "57.726424",
    "lon": "11.987736"
  },
  {
    "name": "Utlandagatan",
    "id": "9022014007190002",
    "lat": "57.690602",
    "lon": "11.988095"
  },
  {
    "name": "Mystängen",
    "id": "9021014004895000",
    "lat": "57.811273",
    "lon": "11.988590"
  },
  {
    "name": "Backadalsmotet",
    "id": "9022014001215003",
    "lat": "57.746389",
    "lon": "11.988599"
  },
  {
    "name": "Bäckebols Gård",
    "id": "9022014001820001",
    "lat": "57.759828",
    "lon": "11.989138"
  },
  {
    "name": "Calvert",
    "id": "9021014001910000",
    "lat": "57.738110",
    "lon": "11.989237"
  },
  {
    "name": "Lisa Sass Gata",
    "id": "9022014004515001",
    "lat": "57.749311",
    "lon": "11.989731"
  },
  {
    "name": "Burmans Gata",
    "id": "9022014001782001",
    "lat": "57.798104",
    "lon": "11.990208"
  },
  {
    "name": "Svingeln",
    "id": "9022014006480030",
    "lat": "57.710406",
    "lon": "11.990325"
  },
  {
    "name": "Lillekärr Södra",
    "id": "9021014004457000",
    "lat": "57.789232",
    "lon": "11.990531"
  },
  {
    "name": "Lillekärr Norra",
    "id": "9022014004455001",
    "lat": "57.796351",
    "lon": "11.990621"
  },
  {
    "name": "Björkuddsgatan",
    "id": "9022014001500002",
    "lat": "57.679599",
    "lon": "11.990630"
  },
  {
    "name": "Friedländers Gata",
    "id": "9022014002465001",
    "lat": "57.754767",
    "lon": "11.990684"
  },
  {
    "name": "Kärra Centrum",
    "id": "9022014004265001",
    "lat": "57.794329",
    "lon": "11.990846"
  },
  {
    "name": "Klareberg",
    "id": "9022014003860006",
    "lat": "57.800684",
    "lon": "11.990918"
  },
  {
    "name": "Bäckebolsmotet",
    "id": "9022014001830001",
    "lat": "57.757644",
    "lon": "11.991071"
  },
  {
    "name": "Kärra Kyrka",
    "id": "9022014004250001",
    "lat": "57.792279",
    "lon": "11.991152"
  },
  {
    "name": "Getebergsäng",
    "id": "9022014002700001",
    "lat": "57.692023",
    "lon": "11.991772"
  },
  {
    "name": "Liseberg Södra",
    "id": "9022014004527001",
    "lat": "57.692023",
    "lon": "11.991772"
  },
  {
    "name": "Tagenevägen 11",
    "id": "9022014001115001",
    "lat": "57.769267",
    "lon": "11.992060"
  },
  {
    "name": "Gårdatorget",
    "id": "9022014002140002",
    "lat": "57.704239",
    "lon": "11.992320"
  },
  {
    "name": "Brandkärr",
    "id": "9022014001670001",
    "lat": "57.765491",
    "lon": "11.992500"
  },
  {
    "name": "Vagnhallen Gårda",
    "id": "9022014007460001",
    "lat": "57.708832",
    "lon": "11.992905"
  },
  {
    "name": "Exportgatan",
    "id": "9022014002307001",
    "lat": "57.739054",
    "lon": "11.993192"
  },
  {
    "name": "Vassgatan",
    "id": "9022014007330001",
    "lat": "57.722963",
    "lon": "11.993327"
  },
  {
    "name": "Liseberg Station",
    "id": "9022014004524031",
    "lat": "57.698099",
    "lon": "11.993498"
  },
  {
    "name": "Trankärrsgatan",
    "id": "9022014007012001",
    "lat": "57.785483",
    "lon": "11.993866"
  },
  {
    "name": "Göpåsgatan",
    "id": "9022014002995001",
    "lat": "57.777141",
    "lon": "11.993902"
  },
  {
    "name": "Tagene",
    "id": "9022014006660001",
    "lat": "57.774139",
    "lon": "11.993920"
  },
  {
    "name": "Plastteknik",
    "id": "9022014005305001",
    "lat": "57.741877",
    "lon": "11.993947"
  },
  {
    "name": "Ingebäcks By",
    "id": "9022014003550002",
    "lat": "57.802976",
    "lon": "11.994145"
  },
  {
    "name": "Simonsvägen",
    "id": "9022014003000001",
    "lat": "57.781969",
    "lon": "11.994208"
  },
  {
    "name": "Bäckebol Södra",
    "id": "9022014001455001",
    "lat": "57.764368",
    "lon": "11.994585"
  },
  {
    "name": "Kärraporten",
    "id": "9021014004264000",
    "lat": "57.787884",
    "lon": "11.994630"
  },
  {
    "name": "Timber Trading",
    "id": "9022014006730001",
    "lat": "57.744726",
    "lon": "11.994900"
  },
  {
    "name": "Liseberg Station (tåg)",
    "id": "9021014004525000",
    "lat": "57.698180",
    "lon": "11.994936"
  },
  {
    "name": "Bäckebolsmotet Östra",
    "id": "9022014001835003",
    "lat": "57.757347",
    "lon": "11.995035"
  },
  {
    "name": "Stigs Center",
    "id": "9022014006270001",
    "lat": "57.746470",
    "lon": "11.995430"
  },
  {
    "name": "Trämjölsfabriken",
    "id": "9022014007070001",
    "lat": "57.755190",
    "lon": "11.995430"
  },
  {
    "name": "Importgatan",
    "id": "9022014003530001",
    "lat": "57.751972",
    "lon": "11.996015"
  },
  {
    "name": "Backa Bergö",
    "id": "9022014001005001",
    "lat": "57.749778",
    "lon": "11.996329"
  },
  {
    "name": "Almedal",
    "id": "9022014001050001",
    "lat": "57.687636",
    "lon": "11.996464"
  },
  {
    "name": "Stora Mysternavägen",
    "id": "9022014004890002",
    "lat": "57.809098",
    "lon": "11.996842"
  },
  {
    "name": "Bäckebol Köpcentrum",
    "id": "9022014005135001",
    "lat": "57.769662",
    "lon": "11.997201"
  },
  {
    "name": "Eriksdal",
    "id": "9022014002285005",
    "lat": "57.858008",
    "lon": "11.997570"
  },
  {
    "name": "Viadukten",
    "id": "9022014007390001",
    "lat": "57.729022",
    "lon": "11.997597"
  },
  {
    "name": "Norra Gubberogatan",
    "id": "9022014005040002",
    "lat": "57.709219",
    "lon": "11.998334"
  },
  {
    "name": "Olskrokstorget",
    "id": "9022014005160001",
    "lat": "57.714630",
    "lon": "11.998658"
  },
  {
    "name": "Bäckebol Norra",
    "id": "9022014001815002",
    "lat": "57.774642",
    "lon": "11.998694"
  },
  {
    "name": "Sankt Sigfrids Plan",
    "id": "9022014005700005",
    "lat": "57.698720",
    "lon": "11.998900"
  },
  {
    "name": "Göpåstunneln",
    "id": "9022014002997001",
    "lat": "57.777708",
    "lon": "11.999008"
  },
  {
    "name": "Betaniagatan",
    "id": "9022014005699001",
    "lat": "57.697353",
    "lon": "11.999386"
  },
  {
    "name": "Slakthusgatan",
    "id": "9022014006020001",
    "lat": "57.731557",
    "lon": "11.999494"
  },
  {
    "name": "Elisedal",
    "id": "9022014002210004",
    "lat": "57.684130",
    "lon": "11.999637"
  },
  {
    "name": "Rönning",
    "id": "9022014005573002",
    "lat": "57.819759",
    "lon": "12.000581"
  },
  {
    "name": "Stora Oxhagen",
    "id": "9022014006315002",
    "lat": "57.854215",
    "lon": "12.000635"
  },
  {
    "name": "Marieholm",
    "id": "9022014004740001",
    "lat": "57.733993",
    "lon": "12.001273"
  },
  {
    "name": "Överåsvallen",
    "id": "9022014007900001",
    "lat": "57.708859",
    "lon": "12.001318"
  },
  {
    "name": "Kärramotet",
    "id": "9022014004263002",
    "lat": "57.787434",
    "lon": "12.002118"
  },
  {
    "name": "Lilla Oxhagen",
    "id": "9022014004405002",
    "lat": "57.845657",
    "lon": "12.002388"
  },
  {
    "name": "Lärjehamnen",
    "id": "9022014004640001",
    "lat": "57.736061",
    "lon": "12.002442"
  },
  {
    "name": "Varbergsgatan",
    "id": "9022014007270001",
    "lat": "57.680561",
    "lon": "12.002487"
  },
  {
    "name": "Årbogatan",
    "id": "9021014007645000",
    "lat": "57.694360",
    "lon": "12.002532"
  },
  {
    "name": "Uppegård",
    "id": "9022014007185002",
    "lat": "57.824092",
    "lon": "12.002667"
  },
  {
    "name": "Herrgårdsgatan",
    "id": "9022014003140002",
    "lat": "57.702198",
    "lon": "12.003044"
  },
  {
    "name": "Bäckeliden",
    "id": "9022014001850001",
    "lat": "57.699915",
    "lon": "12.003179"
  },
  {
    "name": "Gamlestads Torg Västra",
    "id": "9022014007581010",
    "lat": "57.727638",
    "lon": "12.003296"
  },
  {
    "name": "Skräppekärr",
    "id": "9021014005925000",
    "lat": "57.755747",
    "lon": "12.003368"
  },
  {
    "name": "Göteborgs Varv",
    "id": "9022014003035001",
    "lat": "57.739504",
    "lon": "12.003467"
  },
  {
    "name": "Lana",
    "id": "9022014004310004",
    "lat": "57.678116",
    "lon": "12.003862"
  },
  {
    "name": "Anneholmsgatan",
    "id": "9021014001110000",
    "lat": "57.697039",
    "lon": "12.003970"
  },
  {
    "name": "Kallebäcksvägen",
    "id": "9022014003690002",
    "lat": "57.685874",
    "lon": "12.004060"
  },
  {
    "name": "Skarsbo",
    "id": "9022014005835002",
    "lat": "57.829908",
    "lon": "12.004087"
  },
  {
    "name": "Gamlestaden Station",
    "id": "9022014002672002",
    "lat": "57.727314",
    "lon": "12.004123"
  },
  {
    "name": "Redbergsplatsen",
    "id": "9022014005460005",
    "lat": "57.716311",
    "lon": "12.004366"
  },
  {
    "name": "Gamlestads Torg",
    "id": "9022014002670003",
    "lat": "57.727629",
    "lon": "12.004456"
  },
  {
    "name": "Ellesbo",
    "id": "9022014002225002",
    "lat": "57.834475",
    "lon": "12.004582"
  },
  {
    "name": "Färgfabrikerna",
    "id": "9022014002620002",
    "lat": "57.754093",
    "lon": "12.004788"
  },
  {
    "name": "Skårs Kyrka",
    "id": "9022014005955002",
    "lat": "57.690467",
    "lon": "12.004833"
  },
  {
    "name": "Dickson Södra",
    "id": "9022014002055001",
    "lat": "57.742344",
    "lon": "12.004914"
  },
  {
    "name": "Ingeborgsgatan",
    "id": "9022014003540001",
    "lat": "57.709857",
    "lon": "12.004932"
  },
  {
    "name": "Rösbo",
    "id": "9022014005578002",
    "lat": "57.841010",
    "lon": "12.004986"
  },
  {
    "name": "Nobelplatsen",
    "id": "9022014004960001",
    "lat": "57.713974",
    "lon": "12.005678"
  },
  {
    "name": "Prästgårdsgatan",
    "id": "9022014005360002",
    "lat": "57.704248",
    "lon": "12.005678"
  },
  {
    "name": "Ejdergatan",
    "id": "9022014002150001",
    "lat": "57.720851",
    "lon": "12.005822"
  },
  {
    "name": "Prytzgatan",
    "id": "9022014005350001",
    "lat": "57.696589",
    "lon": "12.006191"
  },
  {
    "name": "Dickson Norra",
    "id": "9022014002050001",
    "lat": "57.746272",
    "lon": "12.006460"
  },
  {
    "name": "Skårsskolan",
    "id": "9021014005965000",
    "lat": "57.690593",
    "lon": "12.006658"
  },
  {
    "name": "Alekärrsgatan",
    "id": "9022014004635001",
    "lat": "57.742039",
    "lon": "12.006676"
  },
  {
    "name": "Nylösegatan",
    "id": "9022014002675001",
    "lat": "57.732429",
    "lon": "12.007027"
  },
  {
    "name": "Pärlstickaregatan",
    "id": "9022014005390002",
    "lat": "57.710702",
    "lon": "12.007027"
  },
  {
    "name": "Kärralundsgatan",
    "id": "9022014004260001",
    "lat": "57.707772",
    "lon": "12.007054"
  },
  {
    "name": "Kristinedal",
    "id": "9022014004020001",
    "lat": "57.726928",
    "lon": "12.007521"
  },
  {
    "name": "Gräddgatan",
    "id": "9022014002820001",
    "lat": "57.683366",
    "lon": "12.008159"
  },
  {
    "name": "Fagerängsgatan",
    "id": "9022014002310002",
    "lat": "57.691906",
    "lon": "12.008240"
  },
  {
    "name": "Ekmanska",
    "id": "9022014002200002",
    "lat": "57.699591",
    "lon": "12.009184"
  },
  {
    "name": "Skårsplatsen",
    "id": "9021014005960000",
    "lat": "57.694863",
    "lon": "12.009562"
  },
  {
    "name": "Gustavsplatsen",
    "id": "9022014002960002",
    "lat": "57.723071",
    "lon": "12.009768"
  },
  {
    "name": "Skräppekärr Östra",
    "id": "9022014005926001",
    "lat": "57.748924",
    "lon": "12.010137"
  },
  {
    "name": "Lärjeholm",
    "id": "9022014004645001",
    "lat": "57.762885",
    "lon": "12.010173"
  },
  {
    "name": "Vattenverket",
    "id": "9022014005095001",
    "lat": "57.756898",
    "lon": "12.010541"
  },
  {
    "name": "Burmabacken",
    "id": "9022014004005001",
    "lat": "57.759729",
    "lon": "12.010604"
  },
  {
    "name": "Alelyckan",
    "id": "9022014001025001",
    "lat": "57.752592",
    "lon": "12.011009"
  },
  {
    "name": "Bagaregårdsskolan",
    "id": "9021014001250000",
    "lat": "57.718253",
    "lon": "12.011090"
  },
  {
    "name": "Strömmensbergsstigen",
    "id": "9022014006385001",
    "lat": "57.722739",
    "lon": "12.011494"
  },
  {
    "name": "Lundenskolan",
    "id": "9022014005090001",
    "lat": "57.708419",
    "lon": "12.011818"
  },
  {
    "name": "Nobelgatan",
    "id": "9022014004950002",
    "lat": "57.713705",
    "lon": "12.012087"
  },
  {
    "name": "Smörgatan",
    "id": "9022014006090002",
    "lat": "57.680948",
    "lon": "12.012096"
  },
  {
    "name": "Stockholmsgatan",
    "id": "9022014006290003",
    "lat": "57.717192",
    "lon": "12.012474"
  },
  {
    "name": "SKF",
    "id": "9022014005862002",
    "lat": "57.729076",
    "lon": "12.013220"
  },
  {
    "name": "Byfogdegatan",
    "id": "9022014001795001",
    "lat": "57.725633",
    "lon": "12.013238"
  },
  {
    "name": "Hogenskildsgatan",
    "id": "9022014003210002",
    "lat": "57.710837",
    "lon": "12.013921"
  },
  {
    "name": "Smörkärnegatan",
    "id": "9022014003700001",
    "lat": "57.680058",
    "lon": "12.014452"
  },
  {
    "name": "Bögatan",
    "id": "9022014001900004",
    "lat": "57.700760",
    "lon": "12.015809"
  },
  {
    "name": "Lefflersgatan",
    "id": "9021014004340000",
    "lat": "57.722478",
    "lon": "12.015881"
  },
  {
    "name": "Tomtebacksgatan",
    "id": "9021014006810000",
    "lat": "57.718352",
    "lon": "12.016897"
  },
  {
    "name": "Kallebäck",
    "id": "9022014003680003",
    "lat": "57.680570",
    "lon": "12.017059"
  },
  {
    "name": "Eliebergsvägen",
    "id": "9022014002205002",
    "lat": "57.789699",
    "lon": "12.017517"
  },
  {
    "name": "Kransen",
    "id": "9021014004010000",
    "lat": "57.720770",
    "lon": "12.017670"
  },
  {
    "name": "Härlanda",
    "id": "9022014003310001",
    "lat": "57.718100",
    "lon": "12.019333"
  },
  {
    "name": "Hjällbovallen",
    "id": "9022014003205001",
    "lat": "57.776665",
    "lon": "12.020861"
  },
  {
    "name": "Sävenäs Lokstation",
    "id": "9022014006615001",
    "lat": "57.726002",
    "lon": "12.020933"
  },
  {
    "name": "Töpelsgatan",
    "id": "9022014007150004",
    "lat": "57.702126",
    "lon": "12.022057"
  },
  {
    "name": "Steken",
    "id": "9022014006210001",
    "lat": "57.788764",
    "lon": "12.022326"
  },
  {
    "name": "Hjällbo",
    "id": "9022014003200002",
    "lat": "57.769662",
    "lon": "12.022353"
  },
  {
    "name": "Timjansgatan",
    "id": "9022014006740001",
    "lat": "57.808451",
    "lon": "12.022488"
  },
  {
    "name": "Bellevue",
    "id": "9022014001310003",
    "lat": "57.732438",
    "lon": "12.022587"
  },
  {
    "name": "Virginsgatan",
    "id": "9022014007470030",
    "lat": "57.709884",
    "lon": "12.022641"
  },
  {
    "name": "Bläsebogärdet",
    "id": "9022014001585001",
    "lat": "57.772512",
    "lon": "12.023225"
  },
  {
    "name": "Kviberg",
    "id": "9022014004140003",
    "lat": "57.735908",
    "lon": "12.023378"
  },
  {
    "name": "Welandergatan",
    "id": "9022014007370001",
    "lat": "57.706100",
    "lon": "12.023899"
  },
  {
    "name": "Sanatoriegatan",
    "id": "9022014005650001",
    "lat": "57.713246",
    "lon": "12.024061"
  },
  {
    "name": "Peppargatan",
    "id": "9022014005270001",
    "lat": "57.800756",
    "lon": "12.024079"
  },
  {
    "name": "Kanelgatan",
    "id": "9022014003720002",
    "lat": "57.804001",
    "lon": "12.024403"
  },
  {
    "name": "Solrosgatan",
    "id": "9022014006140002",
    "lat": "57.716266",
    "lon": "12.025023"
  },
  {
    "name": "Munkebäckstorget",
    "id": "9022014004850005",
    "lat": "57.718640",
    "lon": "12.025185"
  },
  {
    "name": "Sävenäs Station",
    "id": "9022014006605002",
    "lat": "57.724833",
    "lon": "12.025293"
  },
  {
    "name": "Delsjömotet",
    "id": "9022014002043002",
    "lat": "57.676408",
    "lon": "12.025562"
  },
  {
    "name": "Munkebäcksmotet",
    "id": "9021014004840000",
    "lat": "57.723575",
    "lon": "12.025805"
  },
  {
    "name": "Ättehögsgatan",
    "id": "9022014007750002",
    "lat": "57.719925",
    "lon": "12.028403"
  },
  {
    "name": "Beväringsgatan",
    "id": "9022014001450002",
    "lat": "57.739809",
    "lon": "12.028556"
  },
  {
    "name": "Nymånegatan",
    "id": "9022014005120005",
    "lat": "57.743009",
    "lon": "12.028592"
  },
  {
    "name": "Bredfjällsgatan",
    "id": "9022014001675001",
    "lat": "57.782068",
    "lon": "12.029131"
  },
  {
    "name": "SKF R-porten",
    "id": "9022014005864001",
    "lat": "57.727341",
    "lon": "12.029239"
  },
  {
    "name": "Runstavsgatan",
    "id": "9022014005510004",
    "lat": "57.747270",
    "lon": "12.030057"
  },
  {
    "name": "Handbollsvägen",
    "id": "9022014003100002",
    "lat": "57.771658",
    "lon": "12.030632"
  },
  {
    "name": "Körvelgatan",
    "id": "9022014004295001",
    "lat": "57.818024",
    "lon": "12.030659"
  },
  {
    "name": "Saffransgatan",
    "id": "9021014005590000",
    "lat": "57.809871",
    "lon": "12.032017"
  },
  {
    "name": "Ramnebacken",
    "id": "9022014005445001",
    "lat": "57.789430",
    "lon": "12.032412"
  },
  {
    "name": "Kortedala Torg",
    "id": "9022014004000003",
    "lat": "57.753050",
    "lon": "12.032592"
  },
  {
    "name": "Gårdsten Centrum",
    "id": "9021014004880000",
    "lat": "57.803741",
    "lon": "12.033005"
  },
  {
    "name": "Salviagatan",
    "id": "9022014005640001",
    "lat": "57.801493",
    "lon": "12.033023"
  },
  {
    "name": "Kaggeledstorget",
    "id": "9022014003670001",
    "lat": "57.722820",
    "lon": "12.033050"
  },
  {
    "name": "Mejramgatan",
    "id": "9022014004805002",
    "lat": "57.816155",
    "lon": "12.033095"
  },
  {
    "name": "Qvidingsgatan",
    "id": "9022014007410001",
    "lat": "57.717903",
    "lon": "12.033185"
  },
  {
    "name": "Persiljegatan",
    "id": "9021014005275000",
    "lat": "57.820919",
    "lon": "12.033689"
  },
  {
    "name": "Gropens Gård",
    "id": "9022014002795001",
    "lat": "57.783182",
    "lon": "12.034120"
  },
  {
    "name": "Eriksbo Västergärde",
    "id": "9022014002270002",
    "lat": "57.772413",
    "lon": "12.035073"
  },
  {
    "name": "Kvibergsskolan",
    "id": "9022014004145001",
    "lat": "57.734820",
    "lon": "12.035352"
  },
  {
    "name": "Hammarkullen",
    "id": "9022014003080003",
    "lat": "57.781160",
    "lon": "12.035468"
  },
  {
    "name": "Allhelgonakyrkan",
    "id": "9022014001040003",
    "lat": "57.757770",
    "lon": "12.036026"
  },
  {
    "name": "Gårdstensliden",
    "id": "9022014002970001",
    "lat": "57.797799",
    "lon": "12.036547"
  },
  {
    "name": "Hammarkullens Väg",
    "id": "9022014003081001",
    "lat": "57.784459",
    "lon": "12.036979"
  },
  {
    "name": "Torpamotet",
    "id": "9022014006840002",
    "lat": "57.726982",
    "lon": "12.037958"
  },
  {
    "name": "Lindareverkstaden",
    "id": "9022014002305001",
    "lat": "57.730218",
    "lon": "12.038669"
  },
  {
    "name": "Studiegången",
    "id": "9022014007160002",
    "lat": "57.714289",
    "lon": "12.039550"
  },
  {
    "name": "Fänkålsgatan",
    "id": "9022014002600001",
    "lat": "57.812433",
    "lon": "12.039801"
  },
  {
    "name": "Lövgärdets Centrum",
    "id": "9022014007260002",
    "lat": "57.815570",
    "lon": "12.040053"
  },
  {
    "name": "Kalvemossen",
    "id": "9022014009420001",
    "lat": "57.676939",
    "lon": "12.040098"
  },
  {
    "name": "Sandeslättsgatan",
    "id": "9021014005670000",
    "lat": "57.778607",
    "lon": "12.040502"
  },
  {
    "name": "Aprilgatan",
    "id": "9022014001120005",
    "lat": "57.761257",
    "lon": "12.040664"
  },
  {
    "name": "Eriksbo Skola",
    "id": "9022014002260001",
    "lat": "57.772925",
    "lon": "12.040700"
  },
  {
    "name": "Bovallstrandsgatan",
    "id": "9022014001650002",
    "lat": "57.717552",
    "lon": "12.040880"
  },
  {
    "name": "Tingvallsvägen",
    "id": "9022014006775004",
    "lat": "57.724689",
    "lon": "12.041132"
  },
  {
    "name": "Januarigatan",
    "id": "9022014003620002",
    "lat": "57.760251",
    "lon": "12.041222"
  },
  {
    "name": "Trädgårdsberget",
    "id": "9022014007043001",
    "lat": "57.804819",
    "lon": "12.043406"
  },
  {
    "name": "Angeredsvinkeln",
    "id": "9022014001077001",
    "lat": "57.800459",
    "lon": "12.043595"
  },
  {
    "name": "Nordbakels",
    "id": "9022014005575002",
    "lat": "57.731081",
    "lon": "12.043900"
  },
  {
    "name": "Orrebacksgatan",
    "id": "9022014005190001",
    "lat": "57.734937",
    "lon": "12.044431"
  },
  {
    "name": "Angered Garaget",
    "id": "9022014009100002",
    "lat": "57.789088",
    "lon": "12.045267"
  },
  {
    "name": "Eriksbo Östergärde",
    "id": "9021014002280000",
    "lat": "57.772161",
    "lon": "12.045932"
  },
  {
    "name": "Storås",
    "id": "9022014006360001",
    "lat": "57.784692",
    "lon": "12.046130"
  },
  {
    "name": "Spadegatan",
    "id": "9022014006158001",
    "lat": "57.791758",
    "lon": "12.046768"
  },
  {
    "name": "Gunnaredsvägen",
    "id": "9022014002880002",
    "lat": "57.808604",
    "lon": "12.047002"
  },
  {
    "name": "Östra Sjukhuset",
    "id": "9022014007880005",
    "lat": "57.722496",
    "lon": "12.047226"
  },
  {
    "name": "Stabbetorget",
    "id": "9022014006180001",
    "lat": "57.714523",
    "lon": "12.047370"
  },
  {
    "name": "Gärdsåsgatan",
    "id": "9022014002980001",
    "lat": "57.751540",
    "lon": "12.047676"
  },
  {
    "name": "Siriusgatan 2",
    "id": "9022014005771001",
    "lat": "57.755576",
    "lon": "12.047892"
  },
  {
    "name": "Angered Centrum",
    "id": "9022014001075018",
    "lat": "57.795704",
    "lon": "12.047927"
  },
  {
    "name": "Storås Industriväg",
    "id": "9022014006362001",
    "lat": "57.778022",
    "lon": "12.048008"
  },
  {
    "name": "Valborgsmässogatan",
    "id": "9022014007230001",
    "lat": "57.746938",
    "lon": "12.048107"
  },
  {
    "name": "Orion",
    "id": "9022014005185001",
    "lat": "57.754309",
    "lon": "12.049303"
  },
  {
    "name": "Hindersmässogatan",
    "id": "9022014003150002",
    "lat": "57.744978",
    "lon": "12.049411"
  },
  {
    "name": "Angereds Storåsväg",
    "id": "9022014001082001",
    "lat": "57.772728",
    "lon": "12.049716"
  },
  {
    "name": "Siriusgatan 30",
    "id": "9021014005776000",
    "lat": "57.756250",
    "lon": "12.050031"
  },
  {
    "name": "Fräntorp",
    "id": "9022014002485001",
    "lat": "57.729553",
    "lon": "12.050714"
  },
  {
    "name": "Gärdsås Torg",
    "id": "9021014002982000",
    "lat": "57.760799",
    "lon": "12.051245"
  },
  {
    "name": "Galileis Gata",
    "id": "9022014002630002",
    "lat": "57.760520",
    "lon": "12.051487"
  },
  {
    "name": "Siriusgatan 54",
    "id": "9021014005772000",
    "lat": "57.755936",
    "lon": "12.051577"
  },
  {
    "name": "Kryddnejlikegatan",
    "id": "9022014004052003",
    "lat": "57.808864",
    "lon": "12.051865"
  },
  {
    "name": "Trädgårdsgärdet",
    "id": "9022014007045002",
    "lat": "57.804424",
    "lon": "12.052350"
  },
  {
    "name": "Rappedalen",
    "id": "9022014005454001",
    "lat": "57.800972",
    "lon": "12.052530"
  },
  {
    "name": "Trätorget",
    "id": "9022014007090001",
    "lat": "57.715493",
    "lon": "12.053123"
  },
  {
    "name": "Industrivägen",
    "id": "9022014003537002",
    "lat": "57.732591",
    "lon": "12.053303"
  },
  {
    "name": "Ungbrodersgatan",
    "id": "9022014007180002",
    "lat": "57.742731",
    "lon": "12.053438"
  },
  {
    "name": "Siriusgatan 78",
    "id": "9021014005773000",
    "lat": "57.756484",
    "lon": "12.053564"
  },
  {
    "name": "Siriusgatan 106",
    "id": "9021014005774000",
    "lat": "57.755567",
    "lon": "12.054139"
  },
  {
    "name": "Lemmingsgatan",
    "id": "9022014004350001",
    "lat": "57.736106",
    "lon": "12.054346"
  },
  {
    "name": "Långavallsgatan",
    "id": "9022014004582002",
    "lat": "57.773770",
    "lon": "12.054427"
  },
  {
    "name": "Spåntorget",
    "id": "9022014007050001",
    "lat": "57.715610",
    "lon": "12.055227"
  },
  {
    "name": "Smörslottsgatan",
    "id": "9022014006100001",
    "lat": "57.719952",
    "lon": "12.055263"
  },
  {
    "name": "Stora Björn",
    "id": "9021014006305000",
    "lat": "57.754758",
    "lon": "12.055820"
  },
  {
    "name": "Fjäderharvsgatan",
    "id": "9022014002352002",
    "lat": "57.799219",
    "lon": "12.056108"
  },
  {
    "name": "Astronomgatan",
    "id": "9021014001192000",
    "lat": "57.759496",
    "lon": "12.057186"
  },
  {
    "name": "Gillegatan",
    "id": "9022014002710002",
    "lat": "57.741301",
    "lon": "12.057303"
  },
  {
    "name": "Keplers Gata",
    "id": "9021014003815000",
    "lat": "57.761015",
    "lon": "12.057465"
  },
  {
    "name": "Tycho Brahes Gata",
    "id": "9021014007130000",
    "lat": "57.762606",
    "lon": "12.058292"
  },
  {
    "name": "Backvägen",
    "id": "9022014001245001",
    "lat": "57.721552",
    "lon": "12.058607"
  },
  {
    "name": "Österlyckan",
    "id": "9022014007870001",
    "lat": "57.737274",
    "lon": "12.058688"
  },
  {
    "name": "Teleskopgatan",
    "id": "9022014006680002",
    "lat": "57.759298",
    "lon": "12.059811"
  },
  {
    "name": "Vättleskolan",
    "id": "9022014001085001",
    "lat": "57.800711",
    "lon": "12.062850"
  },
  {
    "name": "Atmosfärgatan",
    "id": "9021014001195000",
    "lat": "57.751181",
    "lon": "12.063614"
  },
  {
    "name": "Linnarhultsvägen",
    "id": "9022014004500002",
    "lat": "57.776620",
    "lon": "12.064477"
  },
  {
    "name": "Rymdtorget Spårvagn",
    "id": "9022014005531002",
    "lat": "57.755873",
    "lon": "12.066796"
  },
  {
    "name": "Fjällsyran",
    "id": "9021014002393000",
    "lat": "57.800936",
    "lon": "12.067416"
  },
  {
    "name": "Rannebergen Centrum",
    "id": "9021014002355000",
    "lat": "57.804891",
    "lon": "12.068594"
  },
  {
    "name": "Frimästaregatan",
    "id": "9022014002480001",
    "lat": "57.739261",
    "lon": "12.068962"
  },
  {
    "name": "Merkuriusgatan",
    "id": "9022014004808002",
    "lat": "57.761815",
    "lon": "12.069529"
  },
  {
    "name": "Komettorget",
    "id": "9022014003940004",
    "lat": "57.751306",
    "lon": "12.070967"
  },
  {
    "name": "Bergsjösvängen",
    "id": "9022014001387001",
    "lat": "57.747747",
    "lon": "12.071776"
  },
  {
    "name": "Rymdtorget Buss",
    "id": "9022014005530001",
    "lat": "57.757158",
    "lon": "12.072252"
  },
  {
    "name": "Fjällkåpan",
    "id": "9021014002378000",
    "lat": "57.799866",
    "lon": "12.073861"
  },
  {
    "name": "Fjällbruden",
    "id": "9021014002362000",
    "lat": "57.804765",
    "lon": "12.073906"
  },
  {
    "name": "Bergsjödalen",
    "id": "9022014001385001",
    "lat": "57.759280",
    "lon": "12.074841"
  },
  {
    "name": "Fjällhavren",
    "id": "9021014002373000",
    "lat": "57.802419",
    "lon": "12.075848"
  },
  {
    "name": "Fjällbo",
    "id": "9022014002360001",
    "lat": "57.740573",
    "lon": "12.076288"
  },
  {
    "name": "Saturnusgatan",
    "id": "9021014005735000",
    "lat": "57.754587",
    "lon": "12.076756"
  },
  {
    "name": "Ekeredsvägen",
    "id": "9022014002180001",
    "lat": "57.783227",
    "lon": "12.084010"
  },
  {
    "name": "Gunnilse Skola",
    "id": "9022014002940001",
    "lat": "57.785690",
    "lon": "12.090033"
  },
  {
    "name": "Angereds Kyrka",
    "id": "9022014001080002",
    "lat": "57.788153",
    "lon": "12.095813"
  },
  {
    "name": "Rågården",
    "id": "9022014005540001",
    "lat": "57.790904",
    "lon": "12.117756"
  },
  {
    "name": "Bingared",
    "id": "9022014001460001",
    "lat": "57.792468",
    "lon": "12.129729"
  },
  {
    "name": "Knipared",
    "id": "9022014003930002",
    "lat": "57.793673",
    "lon": "12.133774"
  },
  {
    "name": "Björsared",
    "id": "9022014001537001",
    "lat": "57.797349",
    "lon": "12.143195"
  },
  {
    "name": "Ströms Väg",
    "id": "9022014006387002",
    "lat": "57.800891",
    "lon": "12.154611"
  },
  {
    "name": "Olofstorp Västra",
    "id": "9022014005147001",
    "lat": "57.804370",
    "lon": "12.163601"
  },
  {
    "name": "Olofstorp",
    "id": "9022014005145001",
    "lat": "57.804963",
    "lon": "12.169273"
  },
  {
    "name": "Bergums Kyrka",
    "id": "9022014001395001",
    "lat": "57.811139",
    "lon": "12.175359"
  },
  {
    "name": "Häljered",
    "id": "9022014003262001",
    "lat": "57.806878",
    "lon": "12.180258"
  },
  {
    "name": "Stenared",
    "id": "9021014006225000",
    "lat": "57.807480",
    "lon": "12.186559"
  },
  {
    "name": "Dockeredsvägen",
    "id": "9022014002060001",
    "lat": "57.815301",
    "lon": "12.189049"
  },
  {
    "name": "Kvarnabäcken",
    "id": "9022014004135002",
    "lat": "57.816460",
    "lon": "12.192897"
  },
  {
    "name": "Olofsberg",
    "id": "9022014006235002",
    "lat": "57.802644",
    "lon": "12.200115"
  },
  {
    "name": "Delabäcken",
    "id": "9022014002040002",
    "lat": "57.819256",
    "lon": "12.201652"
  },
  {
    "name": "Furåsvägen/Trekanten",
    "id": "9022014002575001",
    "lat": "57.798796",
    "lon": "12.205239"
  },
  {
    "name": "Marken Norra",
    "id": "9022014004755002",
    "lat": "57.794176",
    "lon": "12.216673"
  }
]